%  GPST                      x-ecef(m)      y-ecef(m)      z-ecef(m)   Q  ns   sdx(m)   sdy(m)   sdz(m)  sdxy(m)  sdyz(m)  sdzx(m) age(s)  ratio  sigma
2022/07/09 01:56:02.200  -2183021.7268   4364522.4837   4093142.1119   6  12   1.7680   3.7176   3.1415   0.0000   0.0000   0.0000   0.00    0.0   0.63
2022/07/09 01:56:02.400  -2183021.7343   4364520.8367   4093140.8493   6  12   1.2582   2.6966   2.2720   0.0000   0.0000   0.0000   0.00    0.0   0.64
2022/07/09 01:56:02.600  -2183021.7221   4364520.0387   4093140.3730   6  12   1.0332   2.2167   1.8709   0.0000   0.0000   0.0000   0.00    0.0   0.66
2022/07/09 01:56:02.800  -2183021.7375   4364519.6473   4093140.1726   6  12   0.8996   1.9332   1.6340   0.0000   0.0000   0.0000   0.00    0.0   0.67
2022/07/09 01:56:03.000  -2183021.7603   4364519.5102   4093140.1168   6  12   0.8090   1.7508   1.4796   0.0000   0.0000   0.0000   0.00    0.0   0.69
2022/07/09 01:56:03.200  -2183021.7723   4364519.3169   4093139.9686   6  12   0.7423   1.6152   1.3654   0.0000   0.0000   0.0000   0.00    0.0   0.70
2022/07/09 01:56:03.400  -2183021.7727   4364519.2166   4093139.9055   6  12   0.6908   1.5078   1.2757   0.0000   0.0000   0.0000   0.00    0.0   0.70
2022/07/09 01:56:03.600  -2183021.7959   4364519.1369   4093139.8436   6  12   0.6495   1.4203   1.2030   0.0000   0.0000   0.0000   0.00    0.0   0.70
2022/07/09 01:56:03.800  -2183021.8141   4364519.0895   4093139.8280   6  12   0.6154   1.3492   1.1438   0.0000   0.0000   0.0000   0.00    0.0   0.71
2022/07/09 01:56:04.000  -2183021.8205   4364518.9926   4093139.7596   6  12   0.5867   1.2854   1.0916   0.0000   0.0000   0.0000   0.00    0.0   0.71
2022/07/09 01:56:04.200  -2183021.8127   4364518.9112   4093139.6816   6  12   0.5622   1.2326   1.0481   0.0000   0.0000   0.0000   0.00    0.0   0.73
2022/07/09 01:56:04.400  -2183021.8062   4364518.8461   4093139.6442   6  12   0.5409   1.1853   1.0095   0.0000   0.0000   0.0000   0.00    0.0   0.73
2022/07/09 01:56:04.600  -2183021.8071   4364518.7871   4093139.5996   6  12   0.5221   1.1447   0.9762   0.0000   0.0000   0.0000   0.00    0.0   0.72
2022/07/09 01:56:04.800  -2183021.8029   4364518.7286   4093139.5629   6  12   0.5055   1.1079   0.9463   0.0000   0.0000   0.0000   0.00    0.0   0.72
2022/07/09 01:56:05.000  -2183021.7984   4364518.6855   4093139.5232   6  12   0.4907   1.0760   0.9201   0.0000   0.0000   0.0000   0.00    0.0   0.72
2022/07/09 01:56:05.200  -2183021.7881   4364518.5964   4093139.4699   6  12   0.4773   1.0462   0.8959   0.0000   0.0000   0.0000   0.00    0.0   0.73
2022/07/09 01:56:05.400  -2183021.7792   4364518.5527   4093139.4386   6  12   0.4652   1.0201   0.8746   0.0000   0.0000   0.0000   0.00    0.0   0.73
2022/07/09 01:56:05.600  -2183021.7828   4364518.5440   4093139.4364   6  12   0.4541   0.9967   0.8554   0.0000   0.0000   0.0000   0.00    0.0   0.74
2022/07/09 01:56:05.800  -2183021.7737   4364518.4886   4093139.4026   6  12   0.4440   0.9746   0.8375   0.0000   0.0000   0.0000   0.00    0.0   0.73
2022/07/09 01:56:06.000  -2183021.7803   4364518.4238   4093139.3601   6  12   0.4347   0.9545   0.8211   0.0000   0.0000   0.0000   0.00    0.0   0.75
2022/07/09 01:56:06.200  -2183021.7633   4364518.3806   4093139.3318   6  12   0.4261   0.9361   0.8061   0.0000   0.0000   0.0000   0.00    0.0   0.74
2022/07/09 01:56:06.400  -2183021.7652   4364518.3328   4093139.2900   6  12   0.4181   0.9186   0.7919   0.0000   0.0000   0.0000   0.00    0.0   0.73
2022/07/09 01:56:06.600  -2183021.7608   4364518.2711   4093139.2518   6  12   0.4107   0.9018   0.7784   0.0000   0.0000   0.0000   0.00    0.0   0.74
2022/07/09 01:56:06.800  -2183021.7509   4364518.2539   4093139.2368   6  12   0.4038   0.8869   0.7663   0.0000   0.0000   0.0000   0.00    0.0   0.74
2022/07/09 01:56:07.000  -2183021.7450   4364518.1960   4093139.2057   6  12   0.3973   0.8724   0.7547   0.0000   0.0000   0.0000   0.00    0.0   0.74
2022/07/09 01:56:07.200  -2183021.7373   4364518.1670   4093139.1771   6  12   0.3913   0.8594   0.7441   0.0000   0.0000   0.0000   0.00    0.0   0.75
2022/07/09 01:56:07.400  -2183021.7221   4364518.1230   4093139.1484   6  12   0.3855   0.8468   0.7340   0.0000   0.0000   0.0000   0.00    0.0   0.74
2022/07/09 01:56:07.600  -2183021.7137   4364518.0508   4093139.0956   6  12   0.3802   0.8350   0.7245   0.0000   0.0000   0.0000   0.00    0.0   0.75
2022/07/09 01:56:07.800  -2183021.6896   4364518.0198   4093139.0729   6  12   0.3751   0.8238   0.7155   0.0000   0.0000   0.0000   0.00    0.0   0.75
2022/07/09 01:56:08.000  -2183021.6900   4364517.9829   4093139.0417   6  12   0.3703   0.8132   0.7070   0.0000   0.0000   0.0000   0.00    0.0   0.75
2022/07/09 01:56:08.200  -2183021.6643   4364517.9462   4093139.0236   6  12   0.3657   0.8032   0.6990   0.0000   0.0000   0.0000   0.00    0.0   0.75
2022/07/09 01:56:08.400  -2183021.6568   4364517.9431   4093139.0325   6  12   0.3614   0.7935   0.6913   0.0000   0.0000   0.0000   0.00    0.0   0.76
2022/07/09 01:56:08.600  -2183021.6386   4364517.7367   4093138.8922   6  12   0.3575   0.7750   0.6794   0.0000   0.0000   0.0000   0.00    0.0   0.82
2022/07/09 01:56:08.800  -2183021.6266   4364517.6224   4093138.8340   6  12   0.3538   0.7587   0.6689   0.0000   0.0000   0.0000   0.00    0.0   0.82
2022/07/09 01:56:09.000  -2183021.6235   4364517.5466   4093138.7907   6  12   0.3503   0.7441   0.6594   0.0000   0.0000   0.0000   0.00    0.0   0.82
2022/07/09 01:56:09.200  -2183021.6065   4364517.5008   4093138.7621   6  12   0.3470   0.7309   0.6508   0.0000   0.0000   0.0000   0.00    0.0   0.81
2022/07/09 01:56:09.400  -2183021.5871   4364517.4793   4093138.7465   6  12   0.3438   0.7190   0.6430   0.0000   0.0000   0.0000   0.00    0.0   0.81
2022/07/09 01:56:09.600  -2183021.5648   4364517.4261   4093138.7123   6  12   0.3407   0.7081   0.6358   0.0000   0.0000   0.0000   0.00    0.0   0.82
2022/07/09 01:56:09.800  -2183021.5564   4364517.3938   4093138.6876   6  12   0.3378   0.6981   0.6291   0.0000   0.0000   0.0000   0.00    0.0   0.82
2022/07/09 01:56:10.000  -2183021.5490   4364517.3724   4093138.6716   6  12   0.3350   0.6889   0.6229   0.0000   0.0000   0.0000   0.00    0.0   0.82
2022/07/09 01:56:10.200  -2183021.5320   4364517.3248   4093138.6458   6  12   0.3323   0.6803   0.6172   0.0000   0.0000   0.0000   0.00    0.0   0.82
2022/07/09 01:56:10.400  -2183021.5202   4364517.2822   4093138.6254   6  12   0.3297   0.6724   0.6118   0.0000   0.0000   0.0000   0.00    0.0   0.82
2022/07/09 01:56:10.600  -2183021.4973   4364517.3220   4093138.6464   6  12   0.3269   0.6682   0.6079   0.0000   0.0000   0.0000   0.00    0.0   0.79
2022/07/09 01:56:10.800  -2183021.4920   4364517.2724   4093138.6351   6  12   0.3245   0.6609   0.6030   0.0000   0.0000   0.0000   0.00    0.0   0.81
2022/07/09 01:56:11.000  -2183021.4835   4364517.2209   4093138.5979   6  12   0.3222   0.6542   0.5983   0.0000   0.0000   0.0000   0.00    0.0   0.82
2022/07/09 01:56:11.200  -2183021.4699   4364517.1877   4093138.5820   6  12   0.3200   0.6479   0.5940   0.0000   0.0000   0.0000   0.00    0.0   0.82
2022/07/09 01:56:11.400  -2183021.4595   4364517.1448   4093138.5471   6  12   0.3178   0.6419   0.5899   0.0000   0.0000   0.0000   0.00    0.0   0.83
2022/07/09 01:56:11.600  -2183021.4480   4364517.1064   4093138.5243   6  12   0.3157   0.6363   0.5860   0.0000   0.0000   0.0000   0.00    0.0   0.83
2022/07/09 01:56:11.800  -2183021.4315   4364517.1230   4093138.5515   6  12   0.3135   0.6331   0.5829   0.0000   0.0000   0.0000   0.00    0.0   0.79
2022/07/09 01:56:12.000  -2183021.4195   4364517.0726   4093138.5172   6  12   0.3115   0.6279   0.5792   0.0000   0.0000   0.0000   0.00    0.0   0.83
2022/07/09 01:56:12.200  -2183021.4178   4364517.0403   4093138.4963   6  12   0.3096   0.6230   0.5758   0.0000   0.0000   0.0000   0.00    0.0   0.83
2022/07/09 01:56:12.400  -2183021.4076   4364517.0088   4093138.4802   6  12   0.3078   0.6183   0.5725   0.0000   0.0000   0.0000   0.00    0.0   0.83
2022/07/09 01:56:12.600  -2183021.3942   4364516.9708   4093138.4584   6  12   0.3060   0.6139   0.5694   0.0000   0.0000   0.0000   0.00    0.0   0.82
2022/07/09 01:56:12.800  -2183021.3821   4364516.9485   4093138.4348   6  12   0.3043   0.6097   0.5664   0.0000   0.0000   0.0000   0.00    0.0   0.85
2022/07/09 01:56:13.000  -2183021.3847   4364516.9355   4093138.4420   6  12   0.3026   0.6056   0.5635   0.0000   0.0000   0.0000   0.00    0.0   0.83
2022/07/09 01:56:13.200  -2183021.3758   4364516.9095   4093138.4345   6  12   0.3010   0.6018   0.5607   0.0000   0.0000   0.0000   0.00    0.0   0.82
2022/07/09 01:56:13.400  -2183021.3738   4364516.8924   4093138.4257   6  12   0.2994   0.5981   0.5580   0.0000   0.0000   0.0000   0.00    0.0   0.86
2022/07/09 01:56:13.600  -2183021.3661   4364516.9093   4093138.4342   6  12   0.2977   0.5958   0.5557   0.0000   0.0000   0.0000   0.00    0.0   0.82
2022/07/09 01:56:13.800  -2183021.3647   4364516.8749   4093138.4147   6  12   0.2962   0.5923   0.5532   0.0000   0.0000   0.0000   0.00    0.0   0.84
2022/07/09 01:56:14.000  -2183021.3545   4364516.8191   4093138.3793   6  12   0.2948   0.5889   0.5508   0.0000   0.0000   0.0000   0.00    0.0   0.83
2022/07/09 01:56:14.200  -2183021.3510   4364516.7839   4093138.3507   6  12   0.2934   0.5857   0.5484   0.0000   0.0000   0.0000   0.00    0.0   0.83
2022/07/09 01:56:14.400  -2183021.3332   4364516.7415   4093138.3310   6  12   0.2920   0.5827   0.5462   0.0000   0.0000   0.0000   0.00    0.0   0.84
2022/07/09 01:56:14.600  -2183021.3314   4364516.7553   4093138.3424   6  12   0.2905   0.5806   0.5441   0.0000   0.0000   0.0000   0.00    0.0   0.80
2022/07/09 01:56:14.800  -2183021.3264   4364516.7163   4093138.3137   6  12   0.2892   0.5777   0.5420   0.0000   0.0000   0.0000   0.00    0.0   0.84
2022/07/09 01:56:15.000  -2183021.3104   4364516.6531   4093138.2744   6  12   0.2879   0.5749   0.5399   0.0000   0.0000   0.0000   0.00    0.0   0.85
2022/07/09 01:56:15.200  -2183021.3166   4364516.6107   4093138.2393   6  12   0.2867   0.5722   0.5380   0.0000   0.0000   0.0000   0.00    0.0   0.86
2022/07/09 01:56:15.400  -2183021.2947   4364516.5340   4093138.1910   6  12   0.2855   0.5696   0.5360   0.0000   0.0000   0.0000   0.00    0.0   0.86
2022/07/09 01:56:15.600  -2183021.2926   4364516.5435   4093138.1900   6  12   0.2841   0.5679   0.5342   0.0000   0.0000   0.0000   0.00    0.0   0.79
2022/07/09 01:56:15.800  -2183021.2786   4364516.5338   4093138.1802   6  12   0.2828   0.5661   0.5324   0.0000   0.0000   0.0000   0.00    0.0   0.80
2022/07/09 01:56:16.000  -2183021.2831   4364516.4986   4093138.1622   6  12   0.2817   0.5637   0.5306   0.0000   0.0000   0.0000   0.00    0.0   0.84
2022/07/09 01:56:16.200  -2183021.2691   4364516.4280   4093138.1092   6  12   0.2806   0.5613   0.5289   0.0000   0.0000   0.0000   0.00    0.0   0.85
2022/07/09 01:56:16.400  -2183021.2568   4364516.4161   4093138.1004   6  12   0.2794   0.5597   0.5272   0.0000   0.0000   0.0000   0.00    0.0   0.81
2022/07/09 01:56:16.600  -2183021.2523   4364516.4098   4093138.0901   6  12   0.2782   0.5581   0.5255   0.0000   0.0000   0.0000   0.00    0.0   0.81
2022/07/09 01:56:16.800  -2183021.2478   4364516.3990   4093138.0980   6  12   0.2770   0.5565   0.5239   0.0000   0.0000   0.0000   0.00    0.0   0.80
2022/07/09 01:56:17.000  -2183021.2176   4364516.3254   4093138.0538   6  11   0.2761   0.5546   0.5220   0.0000   0.0000   0.0000   0.00    0.0   0.78
2022/07/09 01:56:17.200  -2183021.2080   4364516.3068   4093138.0463   6  12   0.2749   0.5528   0.5204   0.0000   0.0000   0.0000   0.00    0.0   0.81
2022/07/09 01:56:17.400  -2183021.1860   4364516.2786   4093138.0315   6  12   0.2738   0.5513   0.5189   0.0000   0.0000   0.0000   0.00    0.0   0.81
2022/07/09 01:56:17.600  -2183021.1693   4364516.1908   4093137.9794   6  11   0.2729   0.5496   0.5170   0.0000   0.0000   0.0000   0.00    0.0   0.81
2022/07/09 01:56:17.800  -2183021.1587   4364516.1699   4093137.9574   6  12   0.2718   0.5479   0.5156   0.0000   0.0000   0.0000   0.00    0.0   0.82
2022/07/09 01:56:18.000  -2183021.1428   4364516.0784   4093137.9040   6  11   0.2710   0.5462   0.5139   0.0000   0.0000   0.0000   0.00    0.0   0.80
2022/07/09 01:56:18.200  -2183021.1085   4364515.9566   4093137.8183   6  11   0.2701   0.5444   0.5122   0.0000   0.0000   0.0000   0.00    0.0   0.81
2022/07/09 01:56:18.400  -2183021.0764   4364515.8604   4093137.7708   6  11   0.2692   0.5425   0.5105   0.0000   0.0000   0.0000   0.00    0.0   0.79
2022/07/09 01:56:18.600  -2183021.0674   4364515.7849   4093137.7507   6  11   0.2683   0.5408   0.5089   0.0000   0.0000   0.0000   0.00    0.0   0.80
2022/07/09 01:56:18.800  -2183021.0516   4364515.7079   4093137.7150   6  11   0.2675   0.5391   0.5073   0.0000   0.0000   0.0000   0.00    0.0   0.83
2022/07/09 01:56:19.000  -2183021.0399   4364515.6540   4093137.6973   6  11   0.2666   0.5374   0.5057   0.0000   0.0000   0.0000   0.00    0.0   0.83
2022/07/09 01:56:19.200  -2183021.0198   4364515.5894   4093137.6668   6  11   0.2658   0.5357   0.5042   0.0000   0.0000   0.0000   0.00    0.0   0.79
2022/07/09 01:56:19.400  -2183021.0157   4364515.5479   4093137.6525   6  11   0.2650   0.5342   0.5028   0.0000   0.0000   0.0000   0.00    0.0   0.79
2022/07/09 01:56:19.600  -2183020.9922   4364515.4697   4093137.5862   6  11   0.2642   0.5326   0.5013   0.0000   0.0000   0.0000   0.00    0.0   0.80
2022/07/09 01:56:19.800  -2183020.9714   4364515.4114   4093137.5520   6  11   0.2634   0.5311   0.4999   0.0000   0.0000   0.0000   0.00    0.0   0.80
2022/07/09 01:56:20.000  -2183020.9592   4364515.3658   4093137.5453   6  11   0.2626   0.5296   0.4986   0.0000   0.0000   0.0000   0.00    0.0   0.79
2022/07/09 01:56:20.200  -2183020.9450   4364515.3074   4093137.5127   6  11   0.2619   0.5281   0.4972   0.0000   0.0000   0.0000   0.00    0.0   0.83
2022/07/09 01:56:20.400  -2183020.9401   4364515.2777   4093137.5031   6  11   0.2611   0.5267   0.4959   0.0000   0.0000   0.0000   0.00    0.0   0.79
2022/07/09 01:56:20.600  -2183020.9151   4364515.1981   4093137.4513   6  11   0.2604   0.5253   0.4946   0.0000   0.0000   0.0000   0.00    0.0   0.79
2022/07/09 01:56:20.800  -2183020.9036   4364515.1502   4093137.4237   6  11   0.2597   0.5240   0.4934   0.0000   0.0000   0.0000   0.00    0.0   0.83
2022/07/09 01:56:21.000  -2183020.8895   4364515.0984   4093137.3901   6  11   0.2590   0.5226   0.4922   0.0000   0.0000   0.0000   0.00    0.0   0.81
2022/07/09 01:56:21.200  -2183020.8777   4364515.0471   4093137.3547   6  11   0.2583   0.5213   0.4909   0.0000   0.0000   0.0000   0.00    0.0   0.79
2022/07/09 01:56:21.400  -2183020.8590   4364514.9910   4093137.3363   6  11   0.2576   0.5201   0.4898   0.0000   0.0000   0.0000   0.00    0.0   0.78
2022/07/09 01:56:21.600  -2183020.8403   4364514.9324   4093137.2993   6  11   0.2569   0.5188   0.4886   0.0000   0.0000   0.0000   0.00    0.0   0.79
2022/07/09 01:56:21.800  -2183020.8386   4364514.9029   4093137.2738   6  11   0.2562   0.5176   0.4874   0.0000   0.0000   0.0000   0.00    0.0   0.80
2022/07/09 01:56:22.000  -2183020.8232   4364514.8349   4093137.2473   6  11   0.2556   0.5164   0.4863   0.0000   0.0000   0.0000   0.00    0.0   0.80
2022/07/09 01:56:22.200  -2183020.8174   4364514.7930   4093137.2276   6  11   0.2549   0.5152   0.4852   0.0000   0.0000   0.0000   0.00    0.0   0.79
2022/07/09 01:56:22.400  -2183020.8061   4364514.7390   4093137.1978   6  11   0.2543   0.5140   0.4842   0.0000   0.0000   0.0000   0.00    0.0   0.80
2022/07/09 01:56:22.600  -2183020.7866   4364514.6992   4093137.1764   6  11   0.2537   0.5129   0.4831   0.0000   0.0000   0.0000   0.00    0.0   0.78
2022/07/09 01:56:22.800  -2183020.7874   4364514.6774   4093137.1814   6  11   0.2531   0.5117   0.4821   0.0000   0.0000   0.0000   0.00    0.0   0.79
2022/07/09 01:56:23.000  -2183020.7736   4364514.6140   4093137.1283   6  11   0.2524   0.5106   0.4810   0.0000   0.0000   0.0000   0.00    0.0   0.78
2022/07/09 01:56:23.200  -2183020.7639   4364514.5788   4093137.1037   6  11   0.2518   0.5096   0.4801   0.0000   0.0000   0.0000   0.00    0.0   0.81
2022/07/09 01:56:23.400  -2183020.7559   4364514.5292   4093137.0708   6  11   0.2512   0.5085   0.4791   0.0000   0.0000   0.0000   0.00    0.0   0.81
2022/07/09 01:56:23.600  -2183020.7417   4364514.4803   4093137.0315   6  11   0.2507   0.5074   0.4781   0.0000   0.0000   0.0000   0.00    0.0   0.82
2022/07/09 01:56:23.800  -2183020.7273   4364514.4319   4093137.0168   6  11   0.2501   0.5064   0.4771   0.0000   0.0000   0.0000   0.00    0.0   0.81
2022/07/09 01:56:24.000  -2183020.7248   4364514.3984   4093136.9919   6  11   0.2495   0.5054   0.4762   0.0000   0.0000   0.0000   0.00    0.0   0.81
2022/07/09 01:56:24.200  -2183020.7255   4364514.3492   4093136.9722   6  11   0.2489   0.5044   0.4753   0.0000   0.0000   0.0000   0.00    0.0   0.82
2022/07/09 01:56:24.400  -2183020.7195   4364514.3083   4093136.9450   6  11   0.2484   0.5034   0.4744   0.0000   0.0000   0.0000   0.00    0.0   0.83
2022/07/09 01:56:24.600  -2183020.7101   4364514.2815   4093136.9344   6  11   0.2478   0.5024   0.4735   0.0000   0.0000   0.0000   0.00    0.0   0.79
2022/07/09 01:56:24.800  -2183020.7025   4364514.2349   4093136.9205   6  11   0.2473   0.5015   0.4726   0.0000   0.0000   0.0000   0.00    0.0   0.79
2022/07/09 01:56:25.000  -2183020.7044   4364514.2088   4093136.9144   6  11   0.2467   0.5005   0.4717   0.0000   0.0000   0.0000   0.00    0.0   0.79
2022/07/09 01:56:25.200  -2183020.6939   4364514.1636   4093136.8864   6  11   0.2462   0.4996   0.4708   0.0000   0.0000   0.0000   0.00    0.0   0.79
2022/07/09 01:56:25.400  -2183020.6902   4364514.1276   4093136.8547   6  11   0.2457   0.4987   0.4700   0.0000   0.0000   0.0000   0.00    0.0   0.82
2022/07/09 01:56:25.600  -2183020.6801   4364514.1018   4093136.8352   6  11   0.2452   0.4978   0.4692   0.0000   0.0000   0.0000   0.00    0.0   0.80
2022/07/09 01:56:25.800  -2183020.6893   4364514.0878   4093136.8537   6  11   0.2447   0.4969   0.4683   0.0000   0.0000   0.0000   0.00    0.0   0.79
2022/07/09 01:56:26.000  -2183020.6825   4364514.0576   4093136.8320   6  11   0.2442   0.4960   0.4675   0.0000   0.0000   0.0000   0.00    0.0   0.79
2022/07/09 01:56:26.200  -2183020.6868   4364514.0377   4093136.8416   6  11   0.2437   0.4951   0.4667   0.0000   0.0000   0.0000   0.00    0.0   0.78
2022/07/09 01:56:26.400  -2183020.6849   4364514.0110   4093136.8149   6  11   0.2432   0.4943   0.4659   0.0000   0.0000   0.0000   0.00    0.0   0.79
2022/07/09 01:56:26.600  -2183020.6753   4364513.9762   4093136.7976   6  11   0.2427   0.4934   0.4651   0.0000   0.0000   0.0000   0.00    0.0   0.79
2022/07/09 01:56:26.800  -2183020.6660   4364513.9439   4093136.7822   6  11   0.2422   0.4926   0.4644   0.0000   0.0000   0.0000   0.00    0.0   0.80
2022/07/09 01:56:27.000  -2183020.6684   4364513.9283   4093136.7870   6  11   0.2417   0.4917   0.4636   0.0000   0.0000   0.0000   0.00    0.0   0.78
2022/07/09 01:56:27.200  -2183020.6601   4364513.8919   4093136.7604   6  11   0.2412   0.4909   0.4629   0.0000   0.0000   0.0000   0.00    0.0   0.79
2022/07/09 01:56:27.400  -2183020.6574   4364513.8694   4093136.7462   6  11   0.2408   0.4901   0.4621   0.0000   0.0000   0.0000   0.00    0.0   0.78
2022/07/09 01:56:27.600  -2183020.6530   4364513.8383   4093136.7176   6  11   0.2403   0.4893   0.4614   0.0000   0.0000   0.0000   0.00    0.0   0.79
2022/07/09 01:56:27.800  -2183020.6631   4364513.8280   4093136.7297   6  11   0.2398   0.4885   0.4606   0.0000   0.0000   0.0000   0.00    0.0   0.78
2022/07/09 01:56:28.000  -2183020.6602   4364513.7913   4093136.7020   6  11   0.2394   0.4878   0.4599   0.0000   0.0000   0.0000   0.00    0.0   0.79
2022/07/09 01:56:28.200  -2183020.6529   4364513.7632   4093136.6864   6  11   0.2390   0.4870   0.4592   0.0000   0.0000   0.0000   0.00    0.0   0.79
2022/07/09 01:56:28.400  -2183020.6586   4364513.7357   4093136.6703   6  11   0.2385   0.4862   0.4585   0.0000   0.0000   0.0000   0.00    0.0   0.79
2022/07/09 01:56:28.600  -2183020.6472   4364513.7034   4093136.6674   6  11   0.2381   0.4855   0.4578   0.0000   0.0000   0.0000   0.00    0.0   0.77
2022/07/09 01:56:28.800  -2183020.6557   4364513.6847   4093136.6489   6  11   0.2376   0.4847   0.4571   0.0000   0.0000   0.0000   0.00    0.0   0.79
2022/07/09 01:56:29.000  -2183020.6450   4364513.6412   4093136.6354   6  11   0.2372   0.4840   0.4564   0.0000   0.0000   0.0000   0.00    0.0   0.79
2022/07/09 01:56:29.200  -2183020.6400   4364513.6163   4093136.6148   6  11   0.2368   0.4832   0.4557   0.0000   0.0000   0.0000   0.00    0.0   0.79
2022/07/09 01:56:29.400  -2183020.6360   4364513.5870   4093136.5978   6  11   0.2363   0.4825   0.4551   0.0000   0.0000   0.0000   0.00    0.0   0.79
2022/07/09 01:56:29.600  -2183020.6397   4364513.5615   4093136.5739   6  11   0.2359   0.4818   0.4544   0.0000   0.0000   0.0000   0.00    0.0   0.78
2022/07/09 01:56:29.800  -2183020.6472   4364513.5480   4093136.5676   6  11   0.2355   0.4811   0.4537   0.0000   0.0000   0.0000   0.00    0.0   0.80
2022/07/09 01:56:30.000  -2183020.6358   4364513.5039   4093136.5336   6  11   0.2351   0.4804   0.4531   0.0000   0.0000   0.0000   0.00    0.0   0.79
2022/07/09 01:56:30.200  -2183020.6349   4364513.4790   4093136.5299   6  11   0.2347   0.4797   0.4524   0.0000   0.0000   0.0000   0.00    0.0   0.79
2022/07/09 01:56:30.400  -2183020.5941   4364513.3758   4093136.4743   6  11   0.2343   0.4790   0.4518   0.0000   0.0000   0.0000   0.00    0.0   0.79
2022/07/09 01:56:30.600  -2183020.5959   4364513.3365   4093136.4398   6  11   0.2339   0.4783   0.4512   0.0000   0.0000   0.0000   0.00    0.0   0.78
2022/07/09 01:56:30.800  -2183020.5749   4364513.2589   4093136.3828   6  11   0.2335   0.4776   0.4506   0.0000   0.0000   0.0000   0.00    0.0   0.78
2022/07/09 01:56:31.000  -2183020.5495   4364513.1778   4093136.3398   6  11   0.2331   0.4769   0.4499   0.0000   0.0000   0.0000   0.00    0.0   0.77
2022/07/09 01:56:31.200  -2183020.5314   4364513.1103   4093136.2768   6  11   0.2327   0.4763   0.4493   0.0000   0.0000   0.0000   0.00    0.0   0.78
2022/07/09 01:56:31.400  -2183020.5041   4364513.0312   4093136.2336   6  11   0.2323   0.4756   0.4487   0.0000   0.0000   0.0000   0.00    0.0   0.79
2022/07/09 01:56:31.600  -2183020.4773   4364512.9453   4093136.1595   6  11   0.2319   0.4750   0.4481   0.0000   0.0000   0.0000   0.00    0.0   0.79
2022/07/09 01:56:31.800  -2183020.4650   4364512.8873   4093136.1244   6  11   0.2315   0.4743   0.4475   0.0000   0.0000   0.0000   0.00    0.0   0.77
2022/07/09 01:56:32.000  -2183020.4435   4364512.8188   4093136.0776   6  11   0.2312   0.4737   0.4469   0.0000   0.0000   0.0000   0.00    0.0   0.77
2022/07/09 01:56:32.200  -2183020.4201   4364512.7333   4093136.0475   6  11   0.2308   0.4730   0.4463   0.0000   0.0000   0.0000   0.00    0.0   0.77
2022/07/09 01:56:32.400  -2183020.3895   4364512.6614   4093135.9979   6  11   0.2304   0.4724   0.4457   0.0000   0.0000   0.0000   0.00    0.0   0.77
2022/07/09 01:56:32.600  -2183020.3764   4364512.6085   4093135.9427   6  11   0.2300   0.4718   0.4451   0.0000   0.0000   0.0000   0.00    0.0   0.79
2022/07/09 01:56:32.800  -2183020.3682   4364512.5502   4093135.9053   6  11   0.2297   0.4711   0.4446   0.0000   0.0000   0.0000   0.00    0.0   0.77
2022/07/09 01:56:33.000  -2183020.3448   4364512.4794   4093135.8399   6  11   0.2293   0.4705   0.4440   0.0000   0.0000   0.0000   0.00    0.0   0.79
2022/07/09 01:56:33.200  -2183020.3128   4364512.4092   4093135.7974   6  11   0.2289   0.4699   0.4434   0.0000   0.0000   0.0000   0.00    0.0   0.78
2022/07/09 01:56:33.400  -2183020.3112   4364512.3604   4093135.7592   6  11   0.2286   0.4693   0.4428   0.0000   0.0000   0.0000   0.00    0.0   0.75
2022/07/09 01:56:33.600  -2183020.2930   4364512.3049   4093135.7244   6  11   0.2282   0.4687   0.4423   0.0000   0.0000   0.0000   0.00    0.0   0.76
2022/07/09 01:56:33.800  -2183020.2863   4364512.2632   4093135.6909   6  11   0.2279   0.4681   0.4417   0.0000   0.0000   0.0000   0.00    0.0   0.74
2022/07/09 01:56:34.000  -2183020.2615   4364512.1999   4093135.6513   6  11   0.2275   0.4675   0.4411   0.0000   0.0000   0.0000   0.00    0.0   0.76
2022/07/09 01:56:34.200  -2183020.2434   4364512.1302   4093135.5878   6  11   0.2272   0.4669   0.4406   0.0000   0.0000   0.0000   0.00    0.0   0.76
2022/07/09 01:56:34.400  -2183020.2256   4364512.0689   4093135.5390   6  11   0.2268   0.4663   0.4401   0.0000   0.0000   0.0000   0.00    0.0   0.74
2022/07/09 01:56:34.600  -2183020.2210   4364512.0329   4093135.5095   6  11   0.2265   0.4657   0.4395   0.0000   0.0000   0.0000   0.00    0.0   0.77
2022/07/09 01:56:34.800  -2183020.2081   4364511.9792   4093135.4841   6  11   0.2261   0.4651   0.4390   0.0000   0.0000   0.0000   0.00    0.0   0.77
2022/07/09 01:56:35.000  -2183020.1946   4364511.9399   4093135.4424   6  11   0.2258   0.4645   0.4384   0.0000   0.0000   0.0000   0.00    0.0   0.76
2022/07/09 01:56:35.200  -2183020.1927   4364511.8965   4093135.4097   6  11   0.2255   0.4639   0.4379   0.0000   0.0000   0.0000   0.00    0.0   0.73
2022/07/09 01:56:35.400  -2183020.1756   4364511.8471   4093135.3733   6  11   0.2251   0.4634   0.4374   0.0000   0.0000   0.0000   0.00    0.0   0.74
2022/07/09 01:56:35.600  -2183020.1797   4364511.8082   4093135.3455   6  11   0.2248   0.4628   0.4368   0.0000   0.0000   0.0000   0.00    0.0   0.76
2022/07/09 01:56:35.800  -2183020.1768   4364511.7771   4093135.3263   6  11   0.2244   0.4622   0.4363   0.0000   0.0000   0.0000   0.00    0.0   0.73
2022/07/09 01:56:36.000  -2183020.1718   4364511.7320   4093135.2907   6  11   0.2241   0.4617   0.4358   0.0000   0.0000   0.0000   0.00    0.0   0.75
2022/07/09 01:56:36.200  -2183020.1626   4364511.6813   4093135.2466   6  11   0.2238   0.4611   0.4353   0.0000   0.0000   0.0000   0.00    0.0   0.73
2022/07/09 01:56:36.400  -2183020.1705   4364511.6512   4093135.2278   6  11   0.2235   0.4605   0.4347   0.0000   0.0000   0.0000   0.00    0.0   0.72
2022/07/09 01:56:36.600  -2183020.1475   4364511.6032   4093135.1955   6  11   0.2231   0.4600   0.4342   0.0000   0.0000   0.0000   0.00    0.0   0.73
2022/07/09 01:56:36.800  -2183020.1288   4364511.5491   4093135.1478   6  11   0.2228   0.4595   0.4337   0.0000   0.0000   0.0000   0.00    0.0   0.76
2022/07/09 01:56:37.000  -2183020.1210   4364511.4965   4093135.1008   6  11   0.2225   0.4589   0.4332   0.0000   0.0000   0.0000   0.00    0.0   0.74
2022/07/09 01:56:37.200  -2183020.1145   4364511.4585   4093135.0889   6  11   0.2222   0.4584   0.4327   0.0000   0.0000   0.0000   0.00    0.0   0.72
2022/07/09 01:56:37.400  -2183020.1169   4364511.4398   4093135.0613   6  11   0.2219   0.4578   0.4322   0.0000   0.0000   0.0000   0.00    0.0   0.72
2022/07/09 01:56:37.600  -2183020.1140   4364511.3910   4093135.0193   6  11   0.2216   0.4573   0.4317   0.0000   0.0000   0.0000   0.00    0.0   0.73
2022/07/09 01:56:37.800  -2183020.1067   4364511.3518   4093135.0018   6  11   0.2212   0.4567   0.4311   0.0000   0.0000   0.0000   0.00    0.0   0.74
2022/07/09 01:56:38.000  -2183020.0897   4364511.2992   4093134.9431   6  11   0.2209   0.4562   0.4307   0.0000   0.0000   0.0000   0.00    0.0   0.75
2022/07/09 01:56:38.200  -2183020.0713   4364511.2440   4093134.8988   6  11   0.2206   0.4557   0.4302   0.0000   0.0000   0.0000   0.00    0.0   0.74
2022/07/09 01:56:38.400  -2183020.0602   4364511.1866   4093134.8635   6  11   0.2203   0.4551   0.4297   0.0000   0.0000   0.0000   0.00    0.0   0.74
2022/07/09 01:56:38.600  -2183020.0581   4364511.1634   4093134.8285   6  11   0.2200   0.4546   0.4292   0.0000   0.0000   0.0000   0.00    0.0   0.73
2022/07/09 01:56:38.800  -2183020.0470   4364511.1345   4093134.8051   6  11   0.2197   0.4541   0.4287   0.0000   0.0000   0.0000   0.00    0.0   0.75
2022/07/09 01:56:39.000  -2183020.0422   4364511.0734   4093134.7464   6  11   0.2194   0.4536   0.4282   0.0000   0.0000   0.0000   0.00    0.0   0.73
2022/07/09 01:56:39.200  -2183020.0327   4364511.0298   4093134.7183   6  11   0.2191   0.4530   0.4277   0.0000   0.0000   0.0000   0.00    0.0   0.75
2022/07/09 01:56:39.400  -2183020.0246   4364510.9829   4093134.6841   6  11   0.2188   0.4525   0.4272   0.0000   0.0000   0.0000   0.00    0.0   0.71
2022/07/09 01:56:39.600  -2183020.0172   4364510.9487   4093134.6506   6  11   0.2185   0.4520   0.4267   0.0000   0.0000   0.0000   0.00    0.0   0.73
2022/07/09 01:56:39.800  -2183020.0035   4364510.9001   4093134.6071   6  11   0.2182   0.4515   0.4262   0.0000   0.0000   0.0000   0.00    0.0   0.72
2022/07/09 01:56:40.000  -2183020.0068   4364510.8677   4093134.5933   6  11   0.2179   0.4510   0.4258   0.0000   0.0000   0.0000   0.00    0.0   0.70
2022/07/09 01:56:40.200  -2183020.0082   4364510.8382   4093134.5754   6  11   0.2176   0.4504   0.4253   0.0000   0.0000   0.0000   0.00    0.0   0.73
2022/07/09 01:56:40.400  -2183020.0003   4364510.7965   4093134.5319   6  11   0.2173   0.4499   0.4248   0.0000   0.0000   0.0000   0.00    0.0   0.71
2022/07/09 01:56:40.600  -2183019.9874   4364510.7398   4093134.4717   6  12   0.2170   0.4494   0.4242   0.0000   0.0000   0.0000   0.00    0.0   0.82
2022/07/09 01:56:40.800  -2183019.9777   4364510.6871   4093134.4310   6  12   0.2167   0.4488   0.4236   0.0000   0.0000   0.0000   0.00    0.0   0.79
2022/07/09 01:56:41.000  -2183019.9577   4364510.6307   4093134.3763   6  12   0.2164   0.4482   0.4231   0.0000   0.0000   0.0000   0.00    0.0   0.80
2022/07/09 01:56:41.200  -2183019.9538   4364510.5722   4093134.3170   6  12   0.2161   0.4477   0.4225   0.0000   0.0000   0.0000   0.00    0.0   0.81
2022/07/09 01:56:41.400  -2183019.9332   4364510.4931   4093134.2449   6  12   0.2157   0.4471   0.4219   0.0000   0.0000   0.0000   0.00    0.0   0.80
2022/07/09 01:56:41.600  -2183019.9211   4364510.4479   4093134.2089   6  12   0.2154   0.4466   0.4214   0.0000   0.0000   0.0000   0.00    0.0   0.80
2022/07/09 01:56:41.800  -2183019.9242   4364510.4209   4093134.1778   6  12   0.2151   0.4460   0.4209   0.0000   0.0000   0.0000   0.00    0.0   0.84
2022/07/09 01:56:42.000  -2183019.9179   4364510.3800   4093134.1373   6  12   0.2148   0.4455   0.4203   0.0000   0.0000   0.0000   0.00    0.0   0.86
2022/07/09 01:56:42.200  -2183019.8986   4364510.3157   4093134.0863   6  12   0.2145   0.4449   0.4197   0.0000   0.0000   0.0000   0.00    0.0   0.83
2022/07/09 01:56:42.400  -2183019.8855   4364510.2590   4093134.0442   6  12   0.2142   0.4444   0.4192   0.0000   0.0000   0.0000   0.00    0.0   0.79
2022/07/09 01:56:42.600  -2183019.8791   4364510.2207   4093134.0051   6  12   0.2139   0.4438   0.4186   0.0000   0.0000   0.0000   0.00    0.0   0.80
2022/07/09 01:56:42.800  -2183019.8639   4364510.1764   4093133.9576   6  12   0.2136   0.4433   0.4181   0.0000   0.0000   0.0000   0.00    0.0   0.83
2022/07/09 01:56:43.000  -2183019.8616   4364510.1425   4093133.9214   6  12   0.2133   0.4428   0.4176   0.0000   0.0000   0.0000   0.00    0.0   0.78
2022/07/09 01:56:43.200  -2183019.8519   4364510.0991   4093133.8761   6  12   0.2130   0.4422   0.4170   0.0000   0.0000   0.0000   0.00    0.0   0.80
2022/07/09 01:56:43.400  -2183019.8297   4364510.0289   4093133.8461   6  12   0.2127   0.4417   0.4165   0.0000   0.0000   0.0000   0.00    0.0   0.78
2022/07/09 01:56:43.600  -2183019.8279   4364509.9964   4093133.8168   6  12   0.2124   0.4412   0.4160   0.0000   0.0000   0.0000   0.00    0.0   0.78
2022/07/09 01:56:43.800  -2183019.8198   4364509.9551   4093133.7863   6  12   0.2121   0.4406   0.4155   0.0000   0.0000   0.0000   0.00    0.0   0.79
2022/07/09 01:56:44.000  -2183019.8078   4364509.8975   4093133.7294   6  12   0.2118   0.4401   0.4149   0.0000   0.0000   0.0000   0.00    0.0   0.79
2022/07/09 01:56:44.200  -2183019.7910   4364509.8331   4093133.6711   6  12   0.2115   0.4396   0.4144   0.0000   0.0000   0.0000   0.00    0.0   0.78
2022/07/09 01:56:44.400  -2183019.7873   4364509.8021   4093133.6343   6  12   0.2112   0.4391   0.4139   0.0000   0.0000   0.0000   0.00    0.0   0.78
2022/07/09 01:56:44.600  -2183019.7755   4364509.7410   4093133.5855   6  12   0.2110   0.4385   0.4133   0.0000   0.0000   0.0000   0.00    0.0   0.79
2022/07/09 01:56:44.800  -2183019.7637   4364509.7044   4093133.5452   6  12   0.2107   0.4380   0.4128   0.0000   0.0000   0.0000   0.00    0.0   0.79
2022/07/09 01:56:45.000  -2183019.7805   4364509.6878   4093133.5395   6  12   0.2104   0.4375   0.4123   0.0000   0.0000   0.0000   0.00    0.0   0.77
2022/07/09 01:56:45.200  -2183019.7711   4364509.6558   4093133.5073   6  12   0.2101   0.4370   0.4118   0.0000   0.0000   0.0000   0.00    0.0   0.80
2022/07/09 01:56:45.400  -2183019.7636   4364509.5933   4093133.4671   6  12   0.2098   0.4365   0.4113   0.0000   0.0000   0.0000   0.00    0.0   0.78
2022/07/09 01:56:45.600  -2183019.7554   4364509.5633   4093133.4415   6  12   0.2095   0.4359   0.4108   0.0000   0.0000   0.0000   0.00    0.0   0.76
2022/07/09 01:56:45.800  -2183019.7455   4364509.5172   4093133.4110   6  12   0.2092   0.4354   0.4102   0.0000   0.0000   0.0000   0.00    0.0   0.79
2022/07/09 01:56:46.000  -2183019.7383   4364509.4737   4093133.3570   6  12   0.2090   0.4349   0.4097   0.0000   0.0000   0.0000   0.00    0.0   0.76
2022/07/09 01:56:46.200  -2183019.7201   4364509.4145   4093133.2993   6  12   0.2087   0.4344   0.4092   0.0000   0.0000   0.0000   0.00    0.0   0.77
2022/07/09 01:56:46.400  -2183019.7114   4364509.3795   4093133.2623   6  12   0.2084   0.4339   0.4087   0.0000   0.0000   0.0000   0.00    0.0   0.73
2022/07/09 01:56:46.600  -2183019.6924   4364509.3263   4093133.2256   6  12   0.2081   0.4335   0.4082   0.0000   0.0000   0.0000   0.00    0.0   0.75
2022/07/09 01:56:46.800  -2183019.6837   4364509.2689   4093133.1791   6  12   0.2078   0.4330   0.4077   0.0000   0.0000   0.0000   0.00    0.0   0.75
2022/07/09 01:56:47.000  -2183019.6770   4364509.2549   4093133.1542   6  12   0.2075   0.4325   0.4072   0.0000   0.0000   0.0000   0.00    0.0   0.74
2022/07/09 01:56:47.200  -2183019.6626   4364509.2051   4093133.1191   6  12   0.2073   0.4320   0.4067   0.0000   0.0000   0.0000   0.00    0.0   0.73
2022/07/09 01:56:47.400  -2183019.6505   4364509.1684   4093133.0702   6  12   0.2070   0.4316   0.4062   0.0000   0.0000   0.0000   0.00    0.0   0.74
2022/07/09 01:56:47.600  -2183019.6393   4364509.1334   4093133.0729   6  12   0.2067   0.4311   0.4057   0.0000   0.0000   0.0000   0.00    0.0   0.74
2022/07/09 01:56:47.800  -2183019.6300   4364509.0933   4093133.0207   6  12   0.2064   0.4306   0.4052   0.0000   0.0000   0.0000   0.00    0.0   0.73
2022/07/09 01:56:48.000  -2183019.6171   4364509.0583   4093132.9803   6  12   0.2062   0.4302   0.4047   0.0000   0.0000   0.0000   0.00    0.0   0.73
2022/07/09 01:56:48.200  -2183019.6092   4364509.0301   4093132.9638   6  12   0.2059   0.4297   0.4043   0.0000   0.0000   0.0000   0.00    0.0   0.73
2022/07/09 01:56:48.400  -2183019.6020   4364508.9990   4093132.9285   6  12   0.2056   0.4292   0.4038   0.0000   0.0000   0.0000   0.00    0.0   0.71
2022/07/09 01:56:48.600  -2183019.5869   4364508.9583   4093132.8953   6  12   0.2053   0.4288   0.4033   0.0000   0.0000   0.0000   0.00    0.0   0.71
2022/07/09 01:56:48.800  -2183019.5825   4364508.9237   4093132.8704   6  12   0.2051   0.4283   0.4028   0.0000   0.0000   0.0000   0.00    0.0   0.73
2022/07/09 01:56:49.000  -2183019.5693   4364508.8785   4093132.8245   6  12   0.2048   0.4278   0.4023   0.0000   0.0000   0.0000   0.00    0.0   0.76
2022/07/09 01:56:49.200  -2183019.5555   4364508.8339   4093132.7697   6  12   0.2045   0.4274   0.4018   0.0000   0.0000   0.0000   0.00    0.0   0.80
2022/07/09 01:56:49.400  -2183019.5137   4364508.7623   4093132.7125   6  12   0.2042   0.4269   0.4013   0.0000   0.0000   0.0000   0.00    0.0   0.72
2022/07/09 01:56:49.600  -2183019.5042   4364508.7247   4093132.6658   6  12   0.2040   0.4265   0.4008   0.0000   0.0000   0.0000   0.00    0.0   0.74
2022/07/09 01:56:49.800  -2183019.4954   4364508.6904   4093132.6289   6  12   0.2037   0.4260   0.4004   0.0000   0.0000   0.0000   0.00    0.0   0.71
2022/07/09 01:56:50.000  -2183019.4761   4364508.6343   4093132.5828   6  12   0.2034   0.4255   0.3999   0.0000   0.0000   0.0000   0.00    0.0   0.74
2022/07/09 01:56:50.200  -2183019.4656   4364508.6064   4093132.5675   6  12   0.2032   0.4251   0.3994   0.0000   0.0000   0.0000   0.00    0.0   0.73
2022/07/09 01:56:50.400  -2183019.4614   4364508.5818   4093132.5421   6  12   0.2029   0.4246   0.3989   0.0000   0.0000   0.0000   0.00    0.0   0.73
2022/07/09 01:56:50.600  -2183019.4447   4364508.5488   4093132.5119   6  12   0.2026   0.4242   0.3984   0.0000   0.0000   0.0000   0.00    0.0   0.74
2022/07/09 01:56:50.800  -2183019.4253   4364508.4979   4093132.4753   6  12   0.2024   0.4237   0.3979   0.0000   0.0000   0.0000   0.00    0.0   0.76
2022/07/09 01:56:51.000  -2183019.4194   4364508.4691   4093132.4450   6  12   0.2021   0.4233   0.3975   0.0000   0.0000   0.0000   0.00    0.0   0.75
2022/07/09 01:56:51.200  -2183019.4007   4364508.4171   4093132.4123   6  11   0.2021   0.4231   0.3970   0.0000   0.0000   0.0000   0.00    0.0   0.70
2022/07/09 01:56:51.400  -2183019.3961   4364508.3882   4093132.3705   6  11   0.2019   0.4227   0.3966   0.0000   0.0000   0.0000   0.00    0.0   0.68
2022/07/09 01:56:51.600  -2183019.3868   4364508.3580   4093132.3340   6  11   0.2017   0.4223   0.3962   0.0000   0.0000   0.0000   0.00    0.0   0.70
2022/07/09 01:56:51.800  -2183019.4005   4364508.3477   4093132.3223   6  11   0.2015   0.4219   0.3958   0.0000   0.0000   0.0000   0.00    0.0   0.66
2022/07/09 01:56:52.000  -2183019.4076   4364508.3303   4093132.3181   6  11   0.2013   0.4216   0.3954   0.0000   0.0000   0.0000   0.00    0.0   0.65
2022/07/09 01:56:52.200  -2183019.4006   4364508.2853   4093132.2716   6  11   0.2011   0.4212   0.3951   0.0000   0.0000   0.0000   0.00    0.0   0.67
2022/07/09 01:56:52.400  -2183019.3964   4364508.2856   4093132.2479   6  11   0.2009   0.4208   0.3947   0.0000   0.0000   0.0000   0.00    0.0   0.69
2022/07/09 01:56:52.600  -2183019.4009   4364508.2699   4093132.2497   6  11   0.2007   0.4205   0.3943   0.0000   0.0000   0.0000   0.00    0.0   0.66
2022/07/09 01:56:52.800  -2183019.3793   4364508.2077   4093132.2242   6  11   0.2005   0.4201   0.3939   0.0000   0.0000   0.0000   0.00    0.0   0.70
2022/07/09 01:56:53.000  -2183019.3898   4364508.1956   4093132.1745   6  11   0.2003   0.4197   0.3936   0.0000   0.0000   0.0000   0.00    0.0   0.67
2022/07/09 01:56:53.200  -2183019.3544   4364508.1174   4093132.1300   6  11   0.2001   0.4193   0.3932   0.0000   0.0000   0.0000   0.00    0.0   0.64
2022/07/09 01:56:53.400  -2183019.3561   4364508.0871   4093132.0888   6  11   0.2000   0.4190   0.3928   0.0000   0.0000   0.0000   0.00    0.0   0.68
2022/07/09 01:56:53.600  -2183019.3292   4364508.0321   4093132.0323   6  11   0.1998   0.4186   0.3925   0.0000   0.0000   0.0000   0.00    0.0   0.69
2022/07/09 01:56:53.800  -2183019.3177   4364508.0066   4093131.9699   6  11   0.1996   0.4182   0.3921   0.0000   0.0000   0.0000   0.00    0.0   0.66
2022/07/09 01:56:54.000  -2183019.3295   4364508.0048   4093131.9640   6  11   0.1994   0.4179   0.3917   0.0000   0.0000   0.0000   0.00    0.0   0.67
2022/07/09 01:56:54.200  -2183019.3329   4364508.0010   4093131.9610   6  11   0.1992   0.4175   0.3914   0.0000   0.0000   0.0000   0.00    0.0   0.64
2022/07/09 01:56:54.400  -2183019.3242   4364507.9771   4093131.9500   6  11   0.1990   0.4172   0.3910   0.0000   0.0000   0.0000   0.00    0.0   0.67
2022/07/09 01:56:54.600  -2183019.3352   4364507.9529   4093131.9169   6  11   0.1988   0.4168   0.3906   0.0000   0.0000   0.0000   0.00    0.0   0.68
2022/07/09 01:56:54.800  -2183019.3204   4364507.9098   4093131.8724   6  11   0.1986   0.4164   0.3903   0.0000   0.0000   0.0000   0.00    0.0   0.68
2022/07/09 01:56:55.000  -2183019.2868   4364507.8377   4093131.8284   6  11   0.1985   0.4161   0.3899   0.0000   0.0000   0.0000   0.00    0.0   0.69
2022/07/09 01:56:55.200  -2183019.2652   4364507.7703   4093131.7596   6  11   0.1983   0.4157   0.3895   0.0000   0.0000   0.0000   0.00    0.0   0.69
2022/07/09 01:56:55.400  -2183019.2591   4364507.7477   4093131.7030   6  11   0.1981   0.4154   0.3892   0.0000   0.0000   0.0000   0.00    0.0   0.68
2022/07/09 01:56:55.600  -2183019.2633   4364507.7339   4093131.6919   6  11   0.1979   0.4150   0.3888   0.0000   0.0000   0.0000   0.00    0.0   0.63
2022/07/09 01:56:55.800  -2183019.2622   4364507.7013   4093131.6726   6  11   0.1977   0.4147   0.3885   0.0000   0.0000   0.0000   0.00    0.0   0.63
2022/07/09 01:56:56.000  -2183019.2496   4364507.6651   4093131.6330   6  11   0.1975   0.4143   0.3881   0.0000   0.0000   0.0000   0.00    0.0   0.62
2022/07/09 01:56:56.200  -2183019.1832   4364507.5296   4093131.4957   6  12   0.1972   0.4137   0.3877   0.0000   0.0000   0.0000   0.00    0.0   0.78
2022/07/09 01:56:56.400  -2183019.1805   4364507.5120   4093131.4555   6  11   0.1971   0.4135   0.3872   0.0000   0.0000   0.0000   0.00    0.0   0.66
2022/07/09 01:56:56.600  -2183019.2021   4364507.5420   4093131.4845   6  11   0.1969   0.4131   0.3869   0.0000   0.0000   0.0000   0.00    0.0   0.66
2022/07/09 01:56:56.800  -2183019.1943   4364507.4960   4093131.4515   6  10   0.1968   0.4128   0.3868   0.0000   0.0000   0.0000   0.00    0.0   0.62
2022/07/09 01:56:57.000  -2183019.1593   4364507.4404   4093131.3848   6  10   0.1966   0.4125   0.3865   0.0000   0.0000   0.0000   0.00    0.0   0.61
2022/07/09 01:56:57.200  -2183019.1720   4364507.4433   4093131.3765   6  10   0.1965   0.4122   0.3862   0.0000   0.0000   0.0000   0.00    0.0   0.63
2022/07/09 01:56:57.400  -2183019.1491   4364507.3844   4093131.3247   6  10   0.1963   0.4119   0.3859   0.0000   0.0000   0.0000   0.00    0.0   0.62
2022/07/09 01:56:57.600  -2183019.1403   4364507.3642   4093131.2869   6  10   0.1962   0.4116   0.3856   0.0000   0.0000   0.0000   0.00    0.0   0.62
2022/07/09 01:56:57.800  -2183019.1248   4364507.3225   4093131.2393   6  10   0.1960   0.4113   0.3854   0.0000   0.0000   0.0000   0.00    0.0   0.62
2022/07/09 01:56:58.000  -2183019.1079   4364507.2852   4093131.1899   6  10   0.1959   0.4110   0.3851   0.0000   0.0000   0.0000   0.00    0.0   0.62
2022/07/09 01:56:58.200  -2183019.1024   4364507.2711   4093131.1705   6  10   0.1957   0.4107   0.3848   0.0000   0.0000   0.0000   0.00    0.0   0.61
2022/07/09 01:56:58.400  -2183019.1084   4364507.2532   4093131.1408   6  10   0.1956   0.4105   0.3846   0.0000   0.0000   0.0000   0.00    0.0   0.61
2022/07/09 01:56:58.600  -2183019.0828   4364507.2085   4093131.0877   6  10   0.1955   0.4102   0.3843   0.0000   0.0000   0.0000   0.00    0.0   0.61
2022/07/09 01:56:58.800  -2183019.0698   4364507.1726   4093131.0397   6  10   0.1953   0.4099   0.3840   0.0000   0.0000   0.0000   0.00    0.0   0.63
2022/07/09 01:56:59.000  -2183019.0683   4364507.1643   4093131.0016   6  10   0.1952   0.4096   0.3837   0.0000   0.0000   0.0000   0.00    0.0   0.59
2022/07/09 01:56:59.200  -2183019.0549   4364507.1350   4093130.9665   6  10   0.1950   0.4093   0.3835   0.0000   0.0000   0.0000   0.00    0.0   0.58
2022/07/09 01:56:59.400  -2183019.0582   4364507.1264   4093130.9584   6  10   0.1949   0.4090   0.3832   0.0000   0.0000   0.0000   0.00    0.0   0.59
2022/07/09 01:56:59.600  -2183019.0488   4364507.1093   4093130.9230   6  10   0.1948   0.4088   0.3829   0.0000   0.0000   0.0000   0.00    0.0   0.60
2022/07/09 01:56:59.800  -2183019.0236   4364507.0552   4093130.8755   6  10   0.1946   0.4085   0.3827   0.0000   0.0000   0.0000   0.00    0.0   0.57
2022/07/09 01:57:00.000  -2183019.0192   4364507.0392   4093130.8454   6  10   0.1945   0.4082   0.3824   0.0000   0.0000   0.0000   0.00    0.0   0.62
2022/07/09 01:57:00.200  -2183019.0107   4364507.0213   4093130.8190   6  10   0.1943   0.4079   0.3821   0.0000   0.0000   0.0000   0.00    0.0   0.59
2022/07/09 01:57:00.400  -2183018.9878   4364506.9827   4093130.7632   6  10   0.1942   0.4077   0.3819   0.0000   0.0000   0.0000   0.00    0.0   0.59
2022/07/09 01:57:00.600  -2183018.9887   4364506.9612   4093130.7337   6  10   0.1941   0.4074   0.3816   0.0000   0.0000   0.0000   0.00    0.0   0.57
2022/07/09 01:57:00.800  -2183018.9745   4364506.9349   4093130.6794   6  10   0.1939   0.4071   0.3814   0.0000   0.0000   0.0000   0.00    0.0   0.58
2022/07/09 01:57:01.000  -2183018.9712   4364506.9215   4093130.6645   6  10   0.1938   0.4068   0.3811   0.0000   0.0000   0.0000   0.00    0.0   0.58
2022/07/09 01:57:01.200  -2183018.9543   4364506.8774   4093130.6259   6  10   0.1937   0.4066   0.3809   0.0000   0.0000   0.0000   0.00    0.0   0.57
2022/07/09 01:57:01.400  -2183018.9400   4364506.8650   4093130.6041   6  10   0.1935   0.4063   0.3806   0.0000   0.0000   0.0000   0.00    0.0   0.56
2022/07/09 01:57:01.600  -2183018.9262   4364506.8257   4093130.5474   6  10   0.1934   0.4060   0.3803   0.0000   0.0000   0.0000   0.00    0.0   0.56
2022/07/09 01:57:01.800  -2183018.8996   4364506.7570   4093130.4820   6  11   0.1931   0.4055   0.3798   0.0000   0.0000   0.0000   0.00    0.0   0.55
2022/07/09 01:57:02.000  -2183018.8976   4364506.7652   4093130.4637   6  10   0.1929   0.4052   0.3795   0.0000   0.0000   0.0000   0.00    0.0   0.55
2022/07/09 01:57:02.200  -2183018.8941   4364506.7463   4093130.4358   6  10   0.1928   0.4049   0.3793   0.0000   0.0000   0.0000   0.00    0.0   0.56
2022/07/09 01:57:02.400  -2183018.8712   4364506.7045   4093130.3780   6  10   0.1927   0.4047   0.3790   0.0000   0.0000   0.0000   0.00    0.0   0.61
2022/07/09 01:57:02.600  -2183018.8738   4364506.7107   4093130.3735   6  10   0.1925   0.4044   0.3788   0.0000   0.0000   0.0000   0.00    0.0   0.58
2022/07/09 01:57:02.800  -2183018.8450   4364506.6571   4093130.3165   6  10   0.1924   0.4041   0.3785   0.0000   0.0000   0.0000   0.00    0.0   0.56
2022/07/09 01:57:03.000  -2183018.8361   4364506.6303   4093130.2781   6  10   0.1923   0.4039   0.3783   0.0000   0.0000   0.0000   0.00    0.0   0.57
2022/07/09 01:57:03.200  -2183018.8266   4364506.6051   4093130.2528   6  10   0.1921   0.4036   0.3780   0.0000   0.0000   0.0000   0.00    0.0   0.56
2022/07/09 01:57:03.400  -2183018.8094   4364506.5647   4093130.1980   6  10   0.1920   0.4034   0.3778   0.0000   0.0000   0.0000   0.00    0.0   0.55
2022/07/09 01:57:03.600  -2183018.8104   4364506.5680   4093130.2004   6  10   0.1919   0.4031   0.3775   0.0000   0.0000   0.0000   0.00    0.0   0.55
2022/07/09 01:57:03.800  -2183018.7911   4364506.5291   4093130.1416   6  10   0.1918   0.4028   0.3773   0.0000   0.0000   0.0000   0.00    0.0   0.55
2022/07/09 01:57:04.000  -2183018.7951   4364506.5376   4093130.1499   6  10   0.1916   0.4026   0.3770   0.0000   0.0000   0.0000   0.00    0.0   0.54
2022/07/09 01:57:04.200  -2183018.7756   4364506.4980   4093130.1034   6  10   0.1915   0.4023   0.3768   0.0000   0.0000   0.0000   0.00    0.0   0.55
2022/07/09 01:57:04.400  -2183018.7019   4364506.3662   4093129.9606   6  11   0.1912   0.4018   0.3765   0.0000   0.0000   0.0000   0.00    0.0   0.82
2022/07/09 01:57:04.600  -2183018.6605   4364506.2866   4093129.8661   6  10   0.1912   0.4017   0.3762   0.0000   0.0000   0.0000   0.00    0.0   0.56
2022/07/09 01:57:04.800  -2183018.6697   4364506.2808   4093129.8687   6  10   0.1911   0.4014   0.3759   0.0000   0.0000   0.0000   0.00    0.0   0.55
2022/07/09 01:57:05.000  -2183018.6604   4364506.2613   4093129.8387   6  10   0.1909   0.4012   0.3757   0.0000   0.0000   0.0000   0.00    0.0   0.59
2022/07/09 01:57:05.200  -2183018.6464   4364506.2419   4093129.8067   6  10   0.1908   0.4009   0.3754   0.0000   0.0000   0.0000   0.00    0.0   0.54
2022/07/09 01:57:05.400  -2183018.6439   4364506.2271   4093129.7881   6  10   0.1907   0.4007   0.3752   0.0000   0.0000   0.0000   0.00    0.0   0.53
2022/07/09 01:57:05.600  -2183018.6347   4364506.2074   4093129.7618   6  10   0.1906   0.4004   0.3749   0.0000   0.0000   0.0000   0.00    0.0   0.55
2022/07/09 01:57:05.800  -2183018.6229   4364506.1904   4093129.7270   6  10   0.1904   0.4002   0.3747   0.0000   0.0000   0.0000   0.00    0.0   0.62
2022/07/09 01:57:06.000  -2183018.5293   4364506.0192   4093129.5527   6  11   0.1901   0.3996   0.3742   0.0000   0.0000   0.0000   0.00    0.0   0.75
2022/07/09 01:57:06.200  -2183018.5069   4364505.9916   4093129.5257   6  10   0.1900   0.3994   0.3739   0.0000   0.0000   0.0000   0.00    0.0   0.55
2022/07/09 01:57:06.400  -2183018.4959   4364505.9774   4093129.5102   6  10   0.1899   0.3991   0.3737   0.0000   0.0000   0.0000   0.00    0.0   0.53
2022/07/09 01:57:06.600  -2183018.5053   4364505.9934   4093129.4941   6  10   0.1898   0.3989   0.3735   0.0000   0.0000   0.0000   0.00    0.0   0.54
2022/07/09 01:57:06.800  -2183018.5103   4364505.9951   4093129.4606   6  10   0.1897   0.3987   0.3732   0.0000   0.0000   0.0000   0.00    0.0   0.54
2022/07/09 01:57:07.000  -2183018.5188   4364506.0127   4093129.4360   6  10   0.1895   0.3984   0.3730   0.0000   0.0000   0.0000   0.00    0.0   0.53
2022/07/09 01:57:07.200  -2183018.5061   4364506.0087   4093129.3967   6  11   0.1892   0.3979   0.3725   0.0000   0.0000   0.0000   0.00    0.0   0.51
2022/07/09 01:57:07.400  -2183018.5174   4364506.0187   4093129.3882   6  10   0.1891   0.3976   0.3722   0.0000   0.0000   0.0000   0.00    0.0   0.55
2022/07/09 01:57:07.600  -2183018.5270   4364506.0277   4093129.3792   6  10   0.1890   0.3974   0.3720   0.0000   0.0000   0.0000   0.00    0.0   0.54
2022/07/09 01:57:07.800  -2183018.5396   4364506.0528   4093129.3749   6  10   0.1889   0.3971   0.3718   0.0000   0.0000   0.0000   0.00    0.0   0.53
2022/07/09 01:57:08.000  -2183018.5384   4364506.0624   4093129.3465   6  10   0.1888   0.3969   0.3715   0.0000   0.0000   0.0000   0.00    0.0   0.55
2022/07/09 01:57:08.200  -2183018.5599   4364506.1078   4093129.3455   6  10   0.1886   0.3966   0.3713   0.0000   0.0000   0.0000   0.00    0.0   0.57
2022/07/09 01:57:08.400  -2183018.5521   4364506.0972   4093129.3121   6  11   0.1884   0.3961   0.3708   0.0000   0.0000   0.0000   0.00    0.0   0.51
2022/07/09 01:57:08.600  -2183018.5680   4364506.1093   4093129.3097   6  10   0.1882   0.3959   0.3706   0.0000   0.0000   0.0000   0.00    0.0   0.51
2022/07/09 01:57:08.800  -2183018.5736   4364506.1346   4093129.3055   6  10   0.1881   0.3956   0.3703   0.0000   0.0000   0.0000   0.00    0.0   0.51
2022/07/09 01:57:09.000  -2183018.5783   4364506.1464   4093129.3001   6  10   0.1880   0.3954   0.3701   0.0000   0.0000   0.0000   0.00    0.0   0.51
2022/07/09 01:57:09.200  -2183018.5858   4364506.1620   4093129.2714   6  10   0.1879   0.3952   0.3699   0.0000   0.0000   0.0000   0.00    0.0   0.54
2022/07/09 01:57:09.400  -2183018.6090   4364506.1826   4093129.2901   6  10   0.1878   0.3949   0.3696   0.0000   0.0000   0.0000   0.00    0.0   0.51
2022/07/09 01:57:09.600  -2183018.6083   4364506.1997   4093129.2630   6  10   0.1877   0.3947   0.3694   0.0000   0.0000   0.0000   0.00    0.0   0.50
2022/07/09 01:57:09.800  -2183018.6121   4364506.2097   4093129.2494   6  10   0.1875   0.3945   0.3692   0.0000   0.0000   0.0000   0.00    0.0   0.55
2022/07/09 01:57:10.000  -2183018.6276   4364506.2293   4093129.2514   6  10   0.1874   0.3942   0.3689   0.0000   0.0000   0.0000   0.00    0.0   0.54
2022/07/09 01:57:10.200  -2183018.6391   4364506.2523   4093129.2460   6  10   0.1873   0.3940   0.3687   0.0000   0.0000   0.0000   0.00    0.0   0.57
2022/07/09 01:57:10.400  -2183018.6506   4364506.2764   4093129.2426   6  10   0.1872   0.3938   0.3685   0.0000   0.0000   0.0000   0.00    0.0   0.52
2022/07/09 01:57:10.600  -2183018.6622   4364506.3077   4093129.2493   6  10   0.1871   0.3936   0.3683   0.0000   0.0000   0.0000   0.00    0.0   0.52
2022/07/09 01:57:10.800  -2183018.5843   4364506.1572   4093129.0824   6  11   0.1866   0.3924   0.3680   0.0000   0.0000   0.0000   0.00    0.0   0.79
2022/07/09 01:57:11.000  -2183018.5957   4364506.1818   4093129.0763   6  10   0.1868   0.3930   0.3677   0.0000   0.0000   0.0000   0.00    0.0   0.51
2022/07/09 01:57:11.200  -2183018.6021   4364506.2002   4093129.0749   6  10   0.1867   0.3928   0.3675   0.0000   0.0000   0.0000   0.00    0.0   0.54
2022/07/09 01:57:11.400  -2183018.6262   4364506.2393   4093129.0762   6  10   0.1866   0.3926   0.3673   0.0000   0.0000   0.0000   0.00    0.0   0.49
2022/07/09 01:57:11.600  -2183018.6167   4364506.2335   4093129.0643   6  10   0.1865   0.3923   0.3671   0.0000   0.0000   0.0000   0.00    0.0   0.50
2022/07/09 01:57:11.800  -2183018.6303   4364506.2652   4093129.0600   6  10   0.1864   0.3921   0.3669   0.0000   0.0000   0.0000   0.00    0.0   0.56
2022/07/09 01:57:12.000  -2183018.6425   4364506.2812   4093129.0622   6  10   0.1863   0.3919   0.3666   0.0000   0.0000   0.0000   0.00    0.0   0.50
2022/07/09 01:57:12.200  -2183018.6544   4364506.3171   4093129.0701   6  10   0.1862   0.3917   0.3664   0.0000   0.0000   0.0000   0.00    0.0   0.52
2022/07/09 01:57:12.400  -2183018.6630   4364506.3340   4093129.0624   6  10   0.1860   0.3914   0.3662   0.0000   0.0000   0.0000   0.00    0.0   0.50
2022/07/09 01:57:12.600  -2183018.6678   4364506.3479   4093129.0710   6  10   0.1859   0.3912   0.3660   0.0000   0.0000   0.0000   0.00    0.0   0.49
2022/07/09 01:57:12.800  -2183018.6866   4364506.3986   4093129.0887   6  10   0.1858   0.3910   0.3657   0.0000   0.0000   0.0000   0.00    0.0   0.49
2022/07/09 01:57:13.000  -2183018.7087   4364506.4375   4093129.0992   6  10   0.1857   0.3908   0.3655   0.0000   0.0000   0.0000   0.00    0.0   0.53
2022/07/09 01:57:13.200  -2183018.7151   4364506.4652   4093129.0959   6  10   0.1856   0.3906   0.3653   0.0000   0.0000   0.0000   0.00    0.0   0.51
2022/07/09 01:57:13.400  -2183018.7190   4364506.4881   4093129.0938   6  10   0.1855   0.3903   0.3651   0.0000   0.0000   0.0000   0.00    0.0   0.49
2022/07/09 01:57:13.600  -2183018.6739   4364506.3948   4093128.9850   6  11   0.1852   0.3898   0.3646   0.0000   0.0000   0.0000   0.00    0.0   0.59
2022/07/09 01:57:13.800  -2183018.6813   4364506.4135   4093129.0014   6  10   0.1851   0.3896   0.3644   0.0000   0.0000   0.0000   0.00    0.0   0.51
2022/07/09 01:57:14.000  -2183018.6838   4364506.4335   4093128.9910   6  10   0.1850   0.3894   0.3642   0.0000   0.0000   0.0000   0.00    0.0   0.57
2022/07/09 01:57:14.200  -2183018.6965   4364506.4601   4093128.9898   6  10   0.1849   0.3892   0.3640   0.0000   0.0000   0.0000   0.00    0.0   0.51
2022/07/09 01:57:14.400  -2183018.7014   4364506.4764   4093128.9634   6  10   0.1848   0.3889   0.3637   0.0000   0.0000   0.0000   0.00    0.0   0.48
2022/07/09 01:57:14.600  -2183018.7029   4364506.4790   4093128.9583   6  10   0.1847   0.3887   0.3635   0.0000   0.0000   0.0000   0.00    0.0   0.49
2022/07/09 01:57:14.800  -2183018.7192   4364506.5194   4093128.9771   6  10   0.1846   0.3885   0.3633   0.0000   0.0000   0.0000   0.00    0.0   0.51
2022/07/09 01:57:15.000  -2183018.6582   4364506.4280   4093128.8756   6  11   0.1843   0.3880   0.3628   0.0000   0.0000   0.0000   0.00    0.0   0.57
2022/07/09 01:57:15.200  -2183018.6715   4364506.4307   4093128.8477   6  10   0.1842   0.3878   0.3626   0.0000   0.0000   0.0000   0.00    0.0   0.48
2022/07/09 01:57:15.400  -2183018.6758   4364506.4460   4093128.8522   6  10   0.1841   0.3876   0.3624   0.0000   0.0000   0.0000   0.00    0.0   0.48
2022/07/09 01:57:15.600  -2183018.6871   4364506.4622   4093128.8476   6  10   0.1840   0.3873   0.3622   0.0000   0.0000   0.0000   0.00    0.0   0.45
2022/07/09 01:57:15.800  -2183018.6845   4364506.4738   4093128.8301   6  10   0.1839   0.3871   0.3620   0.0000   0.0000   0.0000   0.00    0.0   0.46
2022/07/09 01:57:16.000  -2183018.6778   4364506.4817   4093128.8129   6  10   0.1838   0.3869   0.3617   0.0000   0.0000   0.0000   0.00    0.0   0.54
2022/07/09 01:57:16.200  -2183018.6441   4364506.4154   4093128.7366   6  11   0.1835   0.3864   0.3613   0.0000   0.0000   0.0000   0.00    0.0   0.54
2022/07/09 01:57:16.400  -2183018.6404   4364506.4179   4093128.7125   6  10   0.1834   0.3862   0.3610   0.0000   0.0000   0.0000   0.00    0.0   0.46
2022/07/09 01:57:16.600  -2183018.6386   4364506.4382   4093128.7072   6  10   0.1833   0.3860   0.3608   0.0000   0.0000   0.0000   0.00    0.0   0.45
2022/07/09 01:57:16.800  -2183018.6482   4364506.4436   4093128.7013   6  10   0.1832   0.3858   0.3606   0.0000   0.0000   0.0000   0.00    0.0   0.47
2022/07/09 01:57:17.000  -2183018.6509   4364506.4453   4093128.6831   6  10   0.1831   0.3856   0.3604   0.0000   0.0000   0.0000   0.00    0.0   0.45
2022/07/09 01:57:17.200  -2183018.6540   4364506.4716   4093128.6796   6  10   0.1830   0.3854   0.3602   0.0000   0.0000   0.0000   0.00    0.0   0.45
2022/07/09 01:57:17.400  -2183018.6472   4364506.4660   4093128.6707   6  11   0.1827   0.3849   0.3597   0.0000   0.0000   0.0000   0.00    0.0   0.44
2022/07/09 01:57:17.600  -2183018.6518   4364506.4738   4093128.6578   6  10   0.1826   0.3846   0.3595   0.0000   0.0000   0.0000   0.00    0.0   0.46
2022/07/09 01:57:17.800  -2183018.6593   4364506.4989   4093128.6529   6  10   0.1825   0.3844   0.3593   0.0000   0.0000   0.0000   0.00    0.0   0.49
2022/07/09 01:57:18.000  -2183018.6519   4364506.4902   4093128.6355   6  10   0.1824   0.3842   0.3591   0.0000   0.0000   0.0000   0.00    0.0   0.48
2022/07/09 01:57:18.200  -2183018.6471   4364506.4972   4093128.6148   6  10   0.1823   0.3840   0.3589   0.0000   0.0000   0.0000   0.00    0.0   0.50
2022/07/09 01:57:18.400  -2183018.6472   4364506.4970   4093128.5880   6  10   0.1822   0.3838   0.3587   0.0000   0.0000   0.0000   0.00    0.0   0.51
2022/07/09 01:57:18.600  -2183018.7186   4364506.6507   4093128.7050   6  11   0.1819   0.3833   0.3582   0.0000   0.0000   0.0000   0.00    0.0   0.64
2022/07/09 01:57:18.800  -2183018.7109   4364506.6493   4093128.7063   6  10   0.1819   0.3831   0.3580   0.0000   0.0000   0.0000   0.00    0.0   0.48
2022/07/09 01:57:19.000  -2183018.7123   4364506.6670   4093128.6926   6  10   0.1818   0.3829   0.3578   0.0000   0.0000   0.0000   0.00    0.0   0.47
2022/07/09 01:57:19.200  -2183018.7171   4364506.6765   4093128.6671   6  10   0.1817   0.3827   0.3576   0.0000   0.0000   0.0000   0.00    0.0   0.47
2022/07/09 01:57:19.400  -2183018.7107   4364506.6771   4093128.6595   6  10   0.1816   0.3825   0.3574   0.0000   0.0000   0.0000   0.00    0.0   0.53
2022/07/09 01:57:19.600  -2183018.7084   4364506.6779   4093128.6517   6  10   0.1815   0.3823   0.3572   0.0000   0.0000   0.0000   0.00    0.0   0.48
2022/07/09 01:57:19.800  -2183018.7164   4364506.7126   4093128.6495   6  10   0.1814   0.3821   0.3570   0.0000   0.0000   0.0000   0.00    0.0   0.49
2022/07/09 01:57:20.000  -2183018.6848   4364506.6515   4093128.5724   6  11   0.1811   0.3816   0.3565   0.0000   0.0000   0.0000   0.00    0.0   0.50
2022/07/09 01:57:20.200  -2183018.6814   4364506.6442   4093128.5492   6  10   0.1810   0.3814   0.3563   0.0000   0.0000   0.0000   0.00    0.0   0.46
2022/07/09 01:57:20.400  -2183018.6780   4364506.6529   4093128.5379   6  10   0.1809   0.3812   0.3561   0.0000   0.0000   0.0000   0.00    0.0   0.47
2022/07/09 01:57:20.600  -2183018.6843   4364506.6608   4093128.5527   6  10   0.1808   0.3810   0.3559   0.0000   0.0000   0.0000   0.00    0.0   0.46
