%  GPST                      x-ecef(m)      y-ecef(m)      z-ecef(m)   Q  ns   sdx(m)   sdy(m)   sdz(m)  sdxy(m)  sdyz(m)  sdzx(m) age(s)  ratio  sigma
2022/07/09 01:56:03.000  -2183019.5980   4364508.9107   4093124.7050   2   8   0.5613   1.3182   1.2754   0.0000   0.0000   0.0000   0.00    0.0   0.00
2022/07/09 01:56:04.000  -2183019.5998   4364508.9630   4093124.7471   2   8   0.3983   0.9354   0.9054   0.0000   0.0000   0.0000   0.00    0.0   0.00
2022/07/09 01:56:05.000  -2183019.6109   4364508.9853   4093124.7600   2   8   0.3257   0.7647   0.7403   0.0000   0.0000   0.0000   0.00    0.0   0.00
2022/07/09 01:56:06.000  -2183019.6038   4364508.9702   4093124.7545   2   8   0.2823   0.6627   0.6416   0.0000   0.0000   0.0000   0.00    0.0   0.00
2022/07/09 01:56:07.000  -2183019.6048   4364508.9780   4093124.7669   2   8   0.2526   0.5930   0.5741   0.0000   0.0000   0.0000   0.00    0.0   0.00
2022/07/09 01:56:08.000  -2183019.6128   4364508.9911   4093124.7771   2   8   0.2307   0.5415   0.5242   0.0000   0.0000   0.0000   0.00    0.0   0.00
2022/07/09 01:56:09.000  -2183019.6111   4364509.0085   4093124.7972   2   8   0.2137   0.5014   0.4854   0.0000   0.0000   0.0000   0.00    0.0   0.00
2022/07/09 01:56:10.000  -2183019.6064   4364508.9948   4093124.7958   2   8   0.1999   0.4691   0.4540   0.0000   0.0000   0.0000   0.00    0.0   0.00
2022/07/09 01:56:11.000  -2183019.6096   4364509.0031   4093124.8072   2   8   0.1886   0.4423   0.4281   0.0000   0.0000   0.0000   0.00    0.0   0.00
2022/07/09 01:56:12.000  -2183019.6125   4364509.0107   4093124.8207   2   8   0.1790   0.4196   0.4060   0.0000   0.0000   0.0000   0.00    1.2   0.00
2022/07/09 01:56:13.000  -2183019.6161   4364509.0398   4093124.8484   2   8   0.1707   0.4001   0.3871   0.0000   0.0000   0.0000   0.00    1.2   0.00
2022/07/09 01:56:14.000  -2183019.6229   4364509.0411   4093124.8534   2   8   0.1634   0.3830   0.3705   0.0000   0.0000   0.0000   0.00    1.2   0.00
2022/07/09 01:56:15.000  -2183019.6253   4364509.0553   4093124.8628   2   8   0.1571   0.3680   0.3558   0.0000   0.0000   0.0000   0.00    1.1   0.00
2022/07/09 01:56:16.000  -2183019.6276   4364509.0628   4093124.8747   2   8   0.1514   0.3545   0.3428   0.0000   0.0000   0.0000   0.00    1.1   0.00
2022/07/09 01:56:17.000  -2183019.6347   4364509.0802   4093124.8980   2   8   0.1463   0.3424   0.3310   0.0000   0.0000   0.0000   0.00    1.0   0.00
2022/07/09 01:56:18.000  -2183019.6363   4364509.0807   4093124.9044   2   8   0.1417   0.3315   0.3203   0.0000   0.0000   0.0000   0.00    1.0   0.00
2022/07/09 01:56:19.000  -2183019.6471   4364509.1220   4093124.9363   2   8   0.1375   0.3215   0.3106   0.0000   0.0000   0.0000   0.00    1.0   0.00
2022/07/09 01:56:20.000  -2183019.6421   4364509.1034   4093124.9246   2   8   0.1336   0.3124   0.3017   0.0000   0.0000   0.0000   0.00    1.0   0.00
2022/07/09 01:56:21.000  -2183019.6435   4364509.1033   4093124.9313   2   8   0.1301   0.3040   0.2934   0.0000   0.0000   0.0000   0.00    1.0   0.00
2022/07/09 01:56:22.000  -2183019.6515   4364509.1350   4093124.9592   2   8   0.1268   0.2962   0.2858   0.0000   0.0000   0.0000   0.00    1.0   0.00
2022/07/09 01:56:23.000  -2183019.6521   4364509.1341   4093124.9597   2   8   0.1238   0.2889   0.2787   0.0000   0.0000   0.0000   0.00    1.0   0.00
2022/07/09 01:56:24.000  -2183019.6588   4364509.1514   4093124.9716   2   8   0.1210   0.2822   0.2721   0.0000   0.0000   0.0000   0.00    1.1   0.00
2022/07/09 01:56:25.000  -2183019.6616   4364509.1661   4093124.9892   2   8   0.1183   0.2759   0.2659   0.0000   0.0000   0.0000   0.00    1.2   0.00
2022/07/09 01:56:26.000  -2183019.6653   4364509.1669   4093124.9854   2   8   0.1158   0.2700   0.2601   0.0000   0.0000   0.0000   0.00    1.2   0.00
2022/07/09 01:56:27.000  -2183019.6700   4364509.1755   4093124.9985   2   8   0.1135   0.2644   0.2546   0.0000   0.0000   0.0000   0.00    1.1   0.00
2022/07/09 01:56:28.000  -2183019.6750   4364509.1897   4093125.0111   2   8   0.1113   0.2591   0.2494   0.0000   0.0000   0.0000   0.00    1.1   0.00
2022/07/09 01:56:29.000  -2183019.6791   4364509.2156   4093125.0321   2   8   0.1093   0.2542   0.2445   0.0000   0.0000   0.0000   0.00    1.2   0.00
2022/07/09 01:56:30.000  -2183019.6793   4364509.2133   4093125.0249   2   8   0.1073   0.2494   0.2398   0.0000   0.0000   0.0000   0.00    1.2   0.00
2022/07/09 01:56:31.000  -2183019.6817   4364509.2174   4093125.0285   2   8   0.1055   0.2450   0.2354   0.0000   0.0000   0.0000   0.00    1.2   0.00
2022/07/09 01:56:32.000  -2183019.6837   4364509.2112   4093125.0196   2   8   0.1037   0.2407   0.2311   0.0000   0.0000   0.0000   0.00    1.3   0.00
2022/07/09 01:56:33.000  -2183019.6877   4364509.2150   4093125.0200   2   8   0.1020   0.2367   0.2271   0.0000   0.0000   0.0000   0.00    1.3   0.00
2022/07/09 01:56:34.000  -2183019.6910   4364509.2241   4093125.0302   2   8   0.1004   0.2328   0.2233   0.0000   0.0000   0.0000   0.00    1.3   0.00
2022/07/09 01:56:35.000  -2183019.6963   4364509.2400   4093125.0397   2   8   0.0989   0.2291   0.2196   0.0000   0.0000   0.0000   0.00    1.3   0.00
2022/07/09 01:56:36.000  -2183019.7000   4364509.2399   4093125.0388   2   8   0.0975   0.2255   0.2160   0.0000   0.0000   0.0000   0.00    1.3   0.00
2022/07/09 01:56:37.000  -2183019.7050   4364509.2458   4093125.0337   2   8   0.0961   0.2221   0.2126   0.0000   0.0000   0.0000   0.00    1.3   0.00
2022/07/09 01:56:38.000  -2183019.7075   4364509.2536   4093125.0399   2   8   0.0947   0.2189   0.2094   0.0000   0.0000   0.0000   0.00    1.3   0.00
2022/07/09 01:56:39.000  -2183019.7099   4364509.2484   4093125.0264   2   8   0.0935   0.2157   0.2062   0.0000   0.0000   0.0000   0.00    1.3   0.00
2022/07/09 01:56:40.000  -2183019.7147   4364509.2542   4093125.0325   2   8   0.0922   0.2127   0.2032   0.0000   0.0000   0.0000   0.00    1.4   0.00
2022/07/09 01:56:41.000  -2183019.7224   4364509.2666   4093125.0373   2   8   0.0911   0.2098   0.2002   0.0000   0.0000   0.0000   0.00    1.4   0.00
2022/07/09 01:56:42.000  -2183019.7184   4364509.2574   4093125.0242   2   8   0.0899   0.2070   0.1974   0.0000   0.0000   0.0000   0.00    1.4   0.00
2022/07/09 01:56:43.000  -2183019.7206   4364509.2528   4093125.0168   2   8   0.0888   0.2042   0.1947   0.0000   0.0000   0.0000   0.00    1.4   0.00
2022/07/09 01:56:44.000  -2183019.7271   4364509.2775   4093125.0251   2   8   0.0877   0.2016   0.1920   0.0000   0.0000   0.0000   0.00    1.5   0.00
2022/07/09 01:56:45.000  -2183019.7280   4364509.2715   4093125.0190   2   8   0.0868   0.1991   0.1895   0.0000   0.0000   0.0000   0.00    1.5   0.00
2022/07/09 01:56:46.000  -2183019.7283   4364509.2670   4093125.0126   2   8   0.0858   0.1966   0.1870   0.0000   0.0000   0.0000   0.00    1.5   0.00
2022/07/09 01:56:47.000  -2183019.7322   4364509.2691   4093125.0094   2   8   0.0848   0.1942   0.1846   0.0000   0.0000   0.0000   0.00    1.5   0.00
2022/07/09 01:56:48.000  -2183019.7283   4364509.2563   4093124.9935   2   8   0.0839   0.1919   0.1822   0.0000   0.0000   0.0000   0.00    1.5   0.00
2022/07/09 01:56:49.000  -2183019.7296   4364509.2547   4093124.9935   2   8   0.0830   0.1897   0.1800   0.0000   0.0000   0.0000   0.00    1.6   0.00
2022/07/09 01:56:50.000  -2183019.7264   4364509.2343   4093124.9723   2   8   0.0821   0.1875   0.1777   0.0000   0.0000   0.0000   0.00    1.6   0.00
2022/07/09 01:56:51.000  -2183019.7258   4364509.2350   4093124.9666   2   8   0.0813   0.1854   0.1756   0.0000   0.0000   0.0000   0.00    1.5   0.00
2022/07/09 01:56:52.000  -2183019.7303   4364509.2410   4093124.9673   2   8   0.0805   0.1833   0.1735   0.0000   0.0000   0.0000   0.00    1.6   0.00
2022/07/09 01:56:53.000  -2183019.7314   4364509.2458   4093124.9717   2   8   0.0797   0.1813   0.1714   0.0000   0.0000   0.0000   0.00    1.5   0.00
2022/07/09 01:56:54.000  -2183019.7293   4364509.2351   4093124.9581   2   8   0.0789   0.1794   0.1694   0.0000   0.0000   0.0000   0.00    1.5   0.00
2022/07/09 01:56:55.000  -2183019.7293   4364509.2433   4093124.9619   2   8   0.0782   0.1775   0.1675   0.0000   0.0000   0.0000   0.00    1.5   0.00
2022/07/09 01:56:56.000  -2183019.7244   4364509.2343   4093124.9484   2   8   0.0775   0.1756   0.1656   0.0000   0.0000   0.0000   0.00    1.5   0.00
2022/07/09 01:56:57.000  -2183019.7273   4364509.2417   4093124.9474   2   8   0.0767   0.1738   0.1638   0.0000   0.0000   0.0000   0.00    1.5   0.00
2022/07/09 01:56:58.000  -2183019.7302   4364509.2602   4093124.9481   2   8   0.0761   0.1721   0.1619   0.0000   0.0000   0.0000   0.00    1.6   0.00
2022/07/09 01:56:59.000  -2183019.7243   4364509.2513   4093124.9435   2   8   0.0754   0.1703   0.1602   0.0000   0.0000   0.0000   0.00    1.6   0.00
2022/07/09 01:57:00.000  -2183019.7301   4364509.2782   4093124.9582   2   8   0.0748   0.1687   0.1584   0.0000   0.0000   0.0000   0.00    1.6   0.00
2022/07/09 01:57:01.000  -2183019.7244   4364509.2765   4093124.9499   2   8   0.0741   0.1670   0.1568   0.0000   0.0000   0.0000   0.00    1.7   0.00
2022/07/09 01:57:02.000  -2183019.7153   4364509.2576   4093124.9298   2   8   0.0735   0.1654   0.1551   0.0000   0.0000   0.0000   0.00    1.6   0.00
2022/07/09 01:57:03.000  -2183019.7142   4364509.2647   4093124.9320   2   8   0.0729   0.1638   0.1535   0.0000   0.0000   0.0000   0.00    1.6   0.00
2022/07/09 01:57:04.000  -2183019.7075   4364509.2538   4093124.9137   2   8   0.0723   0.1623   0.1519   0.0000   0.0000   0.0000   0.00    1.6   0.00
2022/07/09 01:57:05.000  -2183019.7099   4364509.2669   4093124.9150   2   8   0.0717   0.1608   0.1503   0.0000   0.0000   0.0000   0.00    1.7   0.00
2022/07/09 01:57:06.000  -2183019.6970   4364509.2464   4093124.8931   2   8   0.0712   0.1593   0.1488   0.0000   0.0000   0.0000   0.00    1.6   0.00
2022/07/09 01:57:07.000  -2183019.6948   4364509.2382   4093124.8820   2   8   0.0706   0.1579   0.1473   0.0000   0.0000   0.0000   0.00    1.6   0.00
2022/07/09 01:57:08.000  -2183019.6886   4364509.2288   4093124.8671   2   8   0.0701   0.1565   0.1459   0.0000   0.0000   0.0000   0.00    1.6   0.00
2022/07/09 01:57:09.000  -2183019.6896   4364509.2432   4093124.8711   2   8   0.0696   0.1551   0.1444   0.0000   0.0000   0.0000   0.00    1.6   0.00
2022/07/09 01:57:10.000  -2183019.6844   4364509.2474   4093124.8706   2   8   0.0691   0.1537   0.1430   0.0000   0.0000   0.0000   0.00    1.6   0.00
2022/07/09 01:57:11.000  -2183019.6816   4364509.2569   4093124.8677   2   8   0.0685   0.1524   0.1416   0.0000   0.0000   0.0000   0.00    1.7   0.00
2022/07/09 01:57:12.000  -2183019.6755   4364509.2581   4093124.8647   2   8   0.0680   0.1511   0.1403   0.0000   0.0000   0.0000   0.00    1.7   0.00
2022/07/09 01:57:13.000  -2183019.6652   4364509.2370   4093124.8442   2   8   0.0676   0.1498   0.1389   0.0000   0.0000   0.0000   0.00    1.7   0.00
2022/07/09 01:57:14.000  -2183019.6642   4364509.2527   4093124.8527   2   8   0.0671   0.1485   0.1376   0.0000   0.0000   0.0000   0.00    1.7   0.00
2022/07/09 01:57:15.000  -2183019.6531   4364509.2360   4093124.8235   2   8   0.0666   0.1473   0.1364   0.0000   0.0000   0.0000   0.00    1.7   0.00
2022/07/09 01:57:16.000  -2183019.6453   4364509.2276   4093124.8169   2   8   0.0662   0.1461   0.1351   0.0000   0.0000   0.0000   0.00    1.7   0.00
2022/07/09 01:57:17.000  -2183019.6398   4364509.2230   4093124.8078   2   8   0.0657   0.1449   0.1338   0.0000   0.0000   0.0000   0.00    1.7   0.00
2022/07/09 01:57:18.000  -2183019.6348   4364509.2132   4093124.8000   2   8   0.0653   0.1437   0.1326   0.0000   0.0000   0.0000   0.00    1.6   0.00
2022/07/09 01:57:19.000  -2183019.6288   4364509.2127   4093124.7950   2   8   0.0649   0.1425   0.1314   0.0000   0.0000   0.0000   0.00    1.6   0.00
2022/07/09 01:57:20.000  -2183019.6272   4364509.2202   4093124.8007   2   8   0.0645   0.1414   0.1302   0.0000   0.0000   0.0000   0.00    1.6   0.00
2022/07/09 01:57:21.000  -2183019.6139   4364509.1951   4093124.7665   2   7   0.0641   0.1404   0.1292   0.0000   0.0000   0.0000   0.00    1.6   0.00
2022/07/09 01:57:22.000  -2183019.6120   4364509.1931   4093124.7615   2   8   0.0637   0.1393   0.1280   0.0000   0.0000   0.0000   0.00    1.6   0.00
2022/07/09 01:57:23.000  -2183019.6063   4364509.1854   4093124.7554   2   8   0.0633   0.1382   0.1269   0.0000   0.0000   0.0000   0.00    1.6   0.00
2022/07/09 01:57:24.000  -2183019.6037   4364509.1910   4093124.7557   2   8   0.0629   0.1371   0.1258   0.0000   0.0000   0.0000   0.00    1.6   0.00
2022/07/09 01:57:25.000  -2183019.6038   4364509.1894   4093124.7474   2   8   0.0626   0.1361   0.1247   0.0000   0.0000   0.0000   0.00    1.6   0.00
2022/07/09 01:57:26.000  -2183019.5933   4364509.1687   4093124.7318   2   8   0.0622   0.1350   0.1236   0.0000   0.0000   0.0000   0.00    1.5   0.00
2022/07/09 01:57:27.000  -2183019.5913   4364509.1701   4093124.7266   2   8   0.0618   0.1340   0.1225   0.0000   0.0000   0.0000   0.00    1.5   0.00
2022/07/09 01:57:28.000  -2183019.5841   4364509.1523   4093124.7170   2   8   0.0614   0.1330   0.1215   0.0000   0.0000   0.0000   0.00    1.5   0.00
2022/07/09 01:57:29.000  -2183019.5779   4364509.1516   4093124.7179   2   8   0.0611   0.1320   0.1205   0.0000   0.0000   0.0000   0.00    1.5   0.00
2022/07/09 01:57:30.000  -2183019.5758   4364509.1471   4093124.7100   2   8   0.0607   0.1310   0.1195   0.0000   0.0000   0.0000   0.00    1.5   0.00
2022/07/09 01:57:31.000  -2183019.5705   4364509.1425   4093124.7041   2   7   0.0605   0.1301   0.1186   0.0000   0.0000   0.0000   0.00    1.4   0.00
2022/07/09 01:57:32.000  -2183019.5636   4364509.1332   4093124.6972   2   8   0.0601   0.1292   0.1176   0.0000   0.0000   0.0000   0.00    1.4   0.00
2022/07/09 01:57:33.000  -2183019.5593   4364509.1197   4093124.6818   2   8   0.0598   0.1282   0.1167   0.0000   0.0000   0.0000   0.00    1.4   0.00
2022/07/09 01:57:34.000  -2183019.5582   4364509.1165   4093124.6792   2   8   0.0594   0.1273   0.1157   0.0000   0.0000   0.0000   0.00    1.4   0.00
2022/07/09 01:57:35.000  -2183019.5540   4364509.1150   4093124.6775   2   8   0.0591   0.1264   0.1148   0.0000   0.0000   0.0000   0.00    1.4   0.00
2022/07/09 01:57:36.000  -2183019.5486   4364509.0999   4093124.6648   2   8   0.0588   0.1255   0.1139   0.0000   0.0000   0.0000   0.00    1.4   0.00
2022/07/09 01:57:37.000  -2183019.5392   4364509.0764   4093124.6470   2   8   0.0585   0.1246   0.1130   0.0000   0.0000   0.0000   0.00    1.3   0.00
2022/07/09 01:57:38.000  -2183019.5365   4364509.0648   4093124.6364   2   8   0.0582   0.1238   0.1121   0.0000   0.0000   0.0000   0.00    1.3   0.00
2022/07/09 01:57:39.000  -2183019.5346   4364509.0725   4093124.6419   2   8   0.0579   0.1229   0.1113   0.0000   0.0000   0.0000   0.00    1.3   0.00
2022/07/09 01:57:40.000  -2183019.5228   4364509.0457   4093124.6182   2   8   0.0576   0.1221   0.1104   0.0000   0.0000   0.0000   0.00    1.3   0.00
2022/07/09 01:57:41.000  -2183019.5201   4364509.0404   4093124.6168   2   8   0.0573   0.1212   0.1096   0.0000   0.0000   0.0000   0.00    1.3   0.00
2022/07/09 01:57:42.000  -2183019.5165   4364509.0351   4093124.6118   2   8   0.0570   0.1204   0.1087   0.0000   0.0000   0.0000   0.00    1.2   0.00
2022/07/09 01:57:43.000  -2183019.5120   4364509.0278   4093124.6034   2   8   0.0567   0.1196   0.1079   0.0000   0.0000   0.0000   0.00    1.2   0.00
2022/07/09 01:57:44.000  -2183019.5016   4364509.0114   4093124.5902   2   8   0.0564   0.1188   0.1071   0.0000   0.0000   0.0000   0.00    1.2   0.00
2022/07/09 01:57:45.000  -2183019.4969   4364508.9904   4093124.5791   2   8   0.0561   0.1180   0.1063   0.0000   0.0000   0.0000   0.00    1.2   0.00
2022/07/09 01:57:46.000  -2183019.4913   4364508.9883   4093124.5709   2   8   0.0558   0.1172   0.1055   0.0000   0.0000   0.0000   0.00    1.2   0.00
2022/07/09 01:57:47.000  -2183019.4801   4364508.9628   4093124.5496   2   8   0.0556   0.1164   0.1047   0.0000   0.0000   0.0000   0.00    1.1   0.00
2022/07/09 01:57:48.000  -2183019.4810   4364508.9584   4093124.5476   2   8   0.0553   0.1156   0.1039   0.0000   0.0000   0.0000   0.00    1.1   0.00
2022/07/09 01:57:49.000  -2183019.4742   4364508.9465   4093124.5368   2   8   0.0551   0.1149   0.1032   0.0000   0.0000   0.0000   0.00    1.1   0.00
2022/07/09 01:57:50.000  -2183019.4624   4364508.9218   4093124.5143   2   7   0.0549   0.1142   0.1025   0.0000   0.0000   0.0000   0.00    1.1   0.00
2022/07/09 01:57:51.000  -2183019.4593   4364508.9085   4093124.4979   2   8   0.0546   0.1135   0.1017   0.0000   0.0000   0.0000   0.00    1.0   0.00
2022/07/09 01:57:52.000  -2183019.4473   4364508.8817   4093124.4767   2   7   0.0544   0.1128   0.1010   0.0000   0.0000   0.0000   0.00    1.0   0.00
2022/07/09 01:57:53.000  -2183019.4482   4364508.8903   4093124.4668   2   7   0.0542   0.1121   0.1004   0.0000   0.0000   0.0000   0.00    1.0   0.00
2022/07/09 01:57:54.000  -2183019.4383   4364508.8716   4093124.4479   2   8   0.0539   0.1114   0.0996   0.0000   0.0000   0.0000   0.00    1.0   0.00
2022/07/09 01:57:55.000  -2183019.4332   4364508.8619   4093124.4412   2   8   0.0536   0.1107   0.0989   0.0000   0.0000   0.0000   0.00    1.1   0.00
2022/07/09 01:57:56.000  -2183019.4280   4364508.8506   4093124.4276   2   8   0.0534   0.1100   0.0982   0.0000   0.0000   0.0000   0.00    1.1   0.00
2022/07/09 01:57:57.000  -2183019.4215   4364508.8420   4093124.4199   2   8   0.0532   0.1093   0.0975   0.0000   0.0000   0.0000   0.00    1.1   0.00
2022/07/09 01:57:58.000  -2183019.4181   4364508.8324   4093124.4053   2   8   0.0529   0.1086   0.0968   0.0000   0.0000   0.0000   0.00    1.1   0.00
2022/07/09 01:57:59.000  -2183019.4139   4364508.8400   4093124.4077   2   8   0.0527   0.1079   0.0961   0.0000   0.0000   0.0000   0.00    1.1   0.00
2022/07/09 01:58:00.000  -2183019.4011   4364508.8191   4093124.3897   2   8   0.0525   0.1072   0.0954   0.0000   0.0000   0.0000   0.00    1.1   0.00
2022/07/09 01:58:01.000  -2183019.3934   4364508.7991   4093124.3703   2   8   0.0522   0.1066   0.0948   0.0000   0.0000   0.0000   0.00    1.1   0.00
2022/07/09 01:58:02.000  -2183019.3825   4364508.7807   4093124.3538   2   8   0.0521   0.1059   0.0941   0.0000   0.0000   0.0000   0.00    1.2   0.00
2022/07/09 01:58:03.000  -2183019.3817   4364508.7808   4093124.3455   2   8   0.0518   0.1053   0.0934   0.0000   0.0000   0.0000   0.00    1.2   0.00
2022/07/09 01:58:04.000  -2183019.3702   4364508.7484   4093124.3243   2   8   0.0516   0.1046   0.0928   0.0000   0.0000   0.0000   0.00    1.2   0.00
2022/07/09 01:58:05.000  -2183019.3655   4364508.7371   4093124.3112   2   8   0.0514   0.1040   0.0922   0.0000   0.0000   0.0000   0.00    1.2   0.00
2022/07/09 01:58:06.000  -2183019.3583   4364508.7266   4093124.2978   2   8   0.0512   0.1034   0.0915   0.0000   0.0000   0.0000   0.00    1.2   0.00
2022/07/09 01:58:07.000  -2183019.3560   4364508.7275   4093124.2894   2   8   0.0510   0.1027   0.0909   0.0000   0.0000   0.0000   0.00    1.2   0.00
2022/07/09 01:58:08.000  -2183019.3502   4364508.7179   4093124.2792   2   8   0.0508   0.1021   0.0903   0.0000   0.0000   0.0000   0.00    1.3   0.00
2022/07/09 01:58:09.000  -2183019.3418   4364508.7006   4093124.2642   2   8   0.0505   0.1015   0.0897   0.0000   0.0000   0.0000   0.00    1.3   0.00
2022/07/09 01:58:10.000  -2183019.3385   4364508.6957   4093124.2541   2   8   0.0504   0.1009   0.0891   0.0000   0.0000   0.0000   0.00    1.3   0.00
2022/07/09 01:58:11.000  -2183019.3337   4364508.6934   4093124.2487   2   8   0.0502   0.1003   0.0885   0.0000   0.0000   0.0000   0.00    1.3   0.00
2022/07/09 01:58:12.000  -2183019.3270   4364508.6825   4093124.2357   2   8   0.0499   0.0997   0.0879   0.0000   0.0000   0.0000   0.00    1.3   0.00
2022/07/09 01:58:13.000  -2183019.3195   4364508.6602   4093124.2117   2   8   0.0498   0.0991   0.0873   0.0000   0.0000   0.0000   0.00    1.3   0.00
2022/07/09 01:58:14.000  -2183019.3094   4364508.6501   4093124.1992   2   8   0.0496   0.0986   0.0867   0.0000   0.0000   0.0000   0.00    1.4   0.00
2022/07/09 01:58:15.000  -2183019.3064   4364508.6349   4093124.1853   2   8   0.0494   0.0980   0.0862   0.0000   0.0000   0.0000   0.00    1.4   0.00
2022/07/09 01:58:16.000  -2183019.2998   4364508.6244   4093124.1712   2   8   0.0492   0.0974   0.0856   0.0000   0.0000   0.0000   0.00    1.4   0.00
2022/07/09 01:58:17.000  -2183019.2928   4364508.6063   4093124.1560   2   8   0.0490   0.0969   0.0851   0.0000   0.0000   0.0000   0.00    1.4   0.00
2022/07/09 01:58:18.000  -2183019.2870   4364508.5986   4093124.1417   2   8   0.0488   0.0963   0.0845   0.0000   0.0000   0.0000   0.00    1.4   0.00
2022/07/09 01:58:19.000  -2183019.2844   4364508.5918   4093124.1301   2   8   0.0486   0.0958   0.0840   0.0000   0.0000   0.0000   0.00    1.4   0.00
2022/07/09 01:58:20.000  -2183019.2799   4364508.5890   4093124.1233   2   8   0.0484   0.0952   0.0834   0.0000   0.0000   0.0000   0.00    1.4   0.00
2022/07/09 01:58:21.000  -2183019.2705   4364508.5746   4093124.1031   2   8   0.0483   0.0947   0.0829   0.0000   0.0000   0.0000   0.00    1.4   0.00
2022/07/09 01:58:22.000  -2183019.2733   4364508.5697   4093124.0960   2   8   0.0481   0.0942   0.0824   0.0000   0.0000   0.0000   0.00    1.5   0.00
2022/07/09 01:58:23.000  -2183019.2693   4364508.5743   4093124.0942   2   8   0.0480   0.0936   0.0818   0.0000   0.0000   0.0000   0.00    1.5   0.00
2022/07/09 01:58:24.000  -2183019.2688   4364508.5843   4093124.0959   2   8   0.0478   0.0931   0.0813   0.0000   0.0000   0.0000   0.00    1.5   0.00
2022/07/09 01:58:25.000  -2183019.2635   4364508.5786   4093124.0840   2   8   0.0476   0.0926   0.0808   0.0000   0.0000   0.0000   0.00    1.5   0.00
2022/07/09 01:58:26.000  -2183019.2537   4364508.5588   4093124.0677   2   8   0.0474   0.0921   0.0803   0.0000   0.0000   0.0000   0.00    1.5   0.00
2022/07/09 01:58:27.000  -2183019.2490   4364508.5557   4093124.0633   2   8   0.0472   0.0915   0.0798   0.0000   0.0000   0.0000   0.00    1.5   0.00
2022/07/09 01:58:28.000  -2183019.2470   4364508.5525   4093124.0538   2   8   0.0471   0.0910   0.0793   0.0000   0.0000   0.0000   0.00    1.5   0.00
2022/07/09 01:58:29.000  -2183019.2447   4364508.5526   4093124.0477   2   8   0.0469   0.0906   0.0788   0.0000   0.0000   0.0000   0.00    1.5   0.00
2022/07/09 01:58:30.000  -2183019.2496   4364508.5721   4093124.0570   2   8   0.0467   0.0901   0.0783   0.0000   0.0000   0.0000   0.00    1.6   0.00
2022/07/09 01:58:31.000  -2183019.2402   4364508.5537   4093124.0364   2   8   0.0466   0.0896   0.0778   0.0000   0.0000   0.0000   0.00    1.6   0.00
2022/07/09 01:58:32.000  -2183019.2362   4364508.5469   4093124.0288   2   8   0.0465   0.0891   0.0774   0.0000   0.0000   0.0000   0.00    1.6   0.00
2022/07/09 01:58:33.000  -2183019.2304   4364508.5492   4093124.0208   2   8   0.0463   0.0886   0.0769   0.0000   0.0000   0.0000   0.00    1.6   0.00
2022/07/09 01:58:34.000  -2183019.2248   4364508.5411   4093124.0095   2   8   0.0462   0.0881   0.0764   0.0000   0.0000   0.0000   0.00    1.6   0.00
2022/07/09 01:58:35.000  -2183019.2196   4364508.5277   4093123.9941   2   8   0.0459   0.0876   0.0760   0.0000   0.0000   0.0000   0.00    1.6   0.00
2022/07/09 01:58:36.000  -2183019.2212   4364508.5408   4093123.9983   2   8   0.0458   0.0872   0.0755   0.0000   0.0000   0.0000   0.00    1.7   0.00
2022/07/09 01:58:37.000  -2183019.2160   4364508.5328   4093123.9860   2   8   0.0457   0.0867   0.0751   0.0000   0.0000   0.0000   0.00    1.7   0.00
2022/07/09 01:58:38.000  -2183019.2121   4364508.5293   4093123.9856   2   8   0.0455   0.0863   0.0746   0.0000   0.0000   0.0000   0.00    1.7   0.00
2022/07/09 01:58:39.000  -2183019.2082   4364508.5244   4093123.9739   2   8   0.0454   0.0858   0.0742   0.0000   0.0000   0.0000   0.00    1.7   0.00
2022/07/09 01:58:40.000  -2183019.2004   4364508.5046   4093123.9512   2   8   0.0452   0.0853   0.0737   0.0000   0.0000   0.0000   0.00    1.7   0.00
2022/07/09 01:58:41.000  -2183019.1960   4364508.4944   4093123.9368   2   8   0.0451   0.0849   0.0733   0.0000   0.0000   0.0000   0.00    1.8   0.00
2022/07/09 01:58:42.000  -2183019.1991   4364508.5137   4093123.9467   2   8   0.0449   0.0845   0.0729   0.0000   0.0000   0.0000   0.00    1.8   0.00
2022/07/09 01:58:43.000  -2183019.1952   4364508.5029   4093123.9345   2   8   0.0448   0.0840   0.0725   0.0000   0.0000   0.0000   0.00    1.8   0.00
2022/07/09 01:58:44.000  -2183019.1948   4364508.5023   4093123.9307   2   8   0.0446   0.0836   0.0720   0.0000   0.0000   0.0000   0.00    1.8   0.00
2022/07/09 01:58:45.000  -2183019.1925   4364508.5015   4093123.9259   2   8   0.0445   0.0831   0.0716   0.0000   0.0000   0.0000   0.00    1.8   0.00
2022/07/09 01:58:46.000  -2183019.1900   4364508.5012   4093123.9190   2   8   0.0444   0.0827   0.0712   0.0000   0.0000   0.0000   0.00    1.8   0.00
2022/07/09 01:58:47.000  -2183019.1841   4364508.4984   4093123.9099   2   8   0.0442   0.0823   0.0708   0.0000   0.0000   0.0000   0.00    1.9   0.00
2022/07/09 01:58:48.000  -2183019.1833   4364508.4972   4093123.9008   2   8   0.0441   0.0819   0.0704   0.0000   0.0000   0.0000   0.00    1.9   0.00
2022/07/09 01:58:49.000  -2183019.1849   4364508.5107   4093123.9039   2   8   0.0440   0.0814   0.0700   0.0000   0.0000   0.0000   0.00    1.9   0.00
2022/07/09 01:58:50.000  -2183019.1805   4364508.5124   4093123.9032   2   8   0.0438   0.0810   0.0696   0.0000   0.0000   0.0000   0.00    1.9   0.00
2022/07/09 01:58:51.000  -2183019.1825   4364508.5207   4093123.9058   2   8   0.0437   0.0806   0.0692   0.0000   0.0000   0.0000   0.00    2.0   0.00
2022/07/09 01:58:52.000  -2183019.1771   4364508.5168   4093123.8944   2   8   0.0435   0.0802   0.0688   0.0000   0.0000   0.0000   0.00    2.0   0.00
2022/07/09 01:58:53.000  -2183019.1727   4364508.5105   4093123.8834   2   8   0.0434   0.0798   0.0684   0.0000   0.0000   0.0000   0.00    2.0   0.00
2022/07/09 01:58:54.000  -2183019.1712   4364508.5187   4093123.8860   2   8   0.0433   0.0794   0.0681   0.0000   0.0000   0.0000   0.00    2.0   0.00
2022/07/09 01:58:55.000  -2183019.1716   4364508.5209   4093123.8853   2   8   0.0432   0.0790   0.0677   0.0000   0.0000   0.0000   0.00    2.0   0.00
2022/07/09 01:58:56.000  -2183019.1684   4364508.5164   4093123.8776   2   8   0.0431   0.0786   0.0673   0.0000   0.0000   0.0000   0.00    2.0   0.00
2022/07/09 01:58:57.000  -2183019.1699   4364508.5202   4093123.8732   2   8   0.0429   0.0782   0.0669   0.0000   0.0000   0.0000   0.00    2.0   0.00
2022/07/09 01:58:58.000  -2183019.1656   4364508.5151   4093123.8723   2   8   0.0428   0.0778   0.0665   0.0000   0.0000   0.0000   0.00    2.0   0.00
2022/07/09 01:58:59.000  -2183019.1667   4364508.5245   4093123.8713   2   8   0.0427   0.0775   0.0662   0.0000   0.0000   0.0000   0.00    2.0   0.00
2022/07/09 01:59:00.000  -2183019.1585   4364508.5148   4093123.8595   2   8   0.0426   0.0771   0.0658   0.0000   0.0000   0.0000   0.00    2.0   0.00
2022/07/09 01:59:01.000  -2183019.1612   4364508.5277   4093123.8626   2   8   0.0424   0.0767   0.0655   0.0000   0.0000   0.0000   0.00    2.0   0.00
2022/07/09 01:59:02.000  -2183019.1578   4364508.5321   4093123.8582   2   8   0.0423   0.0763   0.0651   0.0000   0.0000   0.0000   0.00    2.0   0.00
2022/07/09 01:59:03.000  -2183019.1560   4364508.5209   4093123.8461   2   8   0.0422   0.0760   0.0647   0.0000   0.0000   0.0000   0.00    2.1   0.00
2022/07/09 01:59:04.000  -2183019.1509   4364508.5164   4093123.8402   2   8   0.0421   0.0756   0.0644   0.0000   0.0000   0.0000   0.00    2.1   0.00
2022/07/09 01:59:05.000  -2183019.1532   4364508.5348   4093123.8483   2   8   0.0419   0.0752   0.0641   0.0000   0.0000   0.0000   0.00    2.1   0.00
2022/07/09 01:59:06.000  -2183019.1544   4364508.5480   4093123.8482   2   8   0.0419   0.0749   0.0637   0.0000   0.0000   0.0000   0.00    2.1   0.00
2022/07/09 01:59:07.000  -2183019.1538   4364508.5515   4093123.8465   2   8   0.0417   0.0745   0.0634   0.0000   0.0000   0.0000   0.00    2.1   0.00
2022/07/09 01:59:08.000  -2183019.1471   4364508.5443   4093123.8386   2   8   0.0416   0.0741   0.0631   0.0000   0.0000   0.0000   0.00    2.1   0.00
2022/07/09 01:59:09.000  -2183019.1471   4364508.5470   4093123.8364   2   8   0.0415   0.0738   0.0627   0.0000   0.0000   0.0000   0.00    2.1   0.00
2022/07/09 01:59:10.000  -2183019.1464   4364508.5514   4093123.8355   2   8   0.0414   0.0734   0.0624   0.0000   0.0000   0.0000   0.00    2.1   0.00
2022/07/09 01:59:11.000  -2183019.1454   4364508.5536   4093123.8335   2   8   0.0413   0.0731   0.0620   0.0000   0.0000   0.0000   0.00    2.1   0.00
2022/07/09 01:59:12.000  -2183019.1472   4364508.5566   4093123.8346   2   8   0.0412   0.0727   0.0617   0.0000   0.0000   0.0000   0.00    2.1   0.00
2022/07/09 01:59:13.000  -2183019.1433   4364508.5520   4093123.8273   2   8   0.0411   0.0724   0.0614   0.0000   0.0000   0.0000   0.00    2.1   0.00
2022/07/09 01:59:14.000  -2183019.1420   4364508.5584   4093123.8219   2   8   0.0410   0.0721   0.0611   0.0000   0.0000   0.0000   0.00    2.1   0.00
2022/07/09 01:59:15.000  -2183019.1391   4364508.5635   4093123.8236   2   8   0.0408   0.0717   0.0608   0.0000   0.0000   0.0000   0.00    2.1   0.00
2022/07/09 01:59:16.000  -2183019.1389   4364508.5566   4093123.8172   2   8   0.0407   0.0714   0.0605   0.0000   0.0000   0.0000   0.00    2.1   0.00
2022/07/09 01:59:17.000  -2183019.1384   4364508.5633   4093123.8184   2   8   0.0406   0.0711   0.0602   0.0000   0.0000   0.0000   0.00    2.1   0.00
2022/07/09 01:59:18.000  -2183019.1358   4364508.5729   4093123.8189   2   8   0.0405   0.0707   0.0598   0.0000   0.0000   0.0000   0.00    2.1   0.00
2022/07/09 01:59:19.000  -2183019.1302   4364508.5563   4093123.8085   2   8   0.0404   0.0704   0.0595   0.0000   0.0000   0.0000   0.00    2.1   0.00
2022/07/09 01:59:20.000  -2183019.1321   4364508.5645   4093123.8060   2   8   0.0403   0.0701   0.0592   0.0000   0.0000   0.0000   0.00    2.1   0.00
2022/07/09 01:59:21.000  -2183019.1296   4364508.5597   4093123.7975   2   8   0.0402   0.0698   0.0589   0.0000   0.0000   0.0000   0.00    2.1   0.00
2022/07/09 01:59:22.000  -2183019.1339   4364508.5734   4093123.8020   2   8   0.0401   0.0695   0.0586   0.0000   0.0000   0.0000   0.00    2.1   0.00
2022/07/09 01:59:23.000  -2183019.1271   4364508.5723   4093123.7960   2   8   0.0400   0.0691   0.0584   0.0000   0.0000   0.0000   0.00    2.1   0.00
2022/07/09 01:59:24.000  -2183019.1271   4364508.5716   4093123.7957   2   8   0.0399   0.0688   0.0581   0.0000   0.0000   0.0000   0.00    2.1   0.00
2022/07/09 01:59:25.000  -2183019.1299   4364508.5770   4093123.7955   2   8   0.0398   0.0685   0.0578   0.0000   0.0000   0.0000   0.00    2.1   0.00
2022/07/09 01:59:26.000  -2183019.1286   4364508.5741   4093123.7916   2   8   0.0397   0.0682   0.0575   0.0000   0.0000   0.0000   0.00    2.1   0.00
2022/07/09 01:59:27.000  -2183019.1298   4364508.5876   4093123.8004   2   8   0.0396   0.0679   0.0572   0.0000   0.0000   0.0000   0.00    2.1   0.00
2022/07/09 01:59:28.000  -2183019.1251   4364508.5763   4093123.7896   2   8   0.0395   0.0676   0.0569   0.0000   0.0000   0.0000   0.00    2.1   0.00
2022/07/09 01:59:29.000  -2183019.1254   4364508.5955   4093123.8000   2   8   0.0394   0.0673   0.0567   0.0000   0.0000   0.0000   0.00    2.1   0.00
2022/07/09 01:59:30.000  -2183019.1224   4364508.5895   4093123.7921   2   8   0.0393   0.0670   0.0564   0.0000   0.0000   0.0000   0.00    2.1   0.00
2022/07/09 01:59:31.000  -2183019.1256   4364508.5989   4093123.7933   2   8   0.0392   0.0667   0.0561   0.0000   0.0000   0.0000   0.00    2.1   0.00
2022/07/09 01:59:32.000  -2183019.1252   4364508.6004   4093123.7970   2   8   0.0391   0.0664   0.0558   0.0000   0.0000   0.0000   0.00    2.1   0.00
2022/07/09 01:59:33.000  -2183019.1176   4364508.5869   4093123.7829   2   8   0.0390   0.0661   0.0556   0.0000   0.0000   0.0000   0.00    2.1   0.00
2022/07/09 01:59:34.000  -2183019.1212   4364508.5941   4093123.7903   2   8   0.0389   0.0658   0.0553   0.0000   0.0000   0.0000   0.00    2.1   0.00
2022/07/09 01:59:35.000  -2183019.1213   4364508.6012   4093123.7908   2   8   0.0388   0.0655   0.0550   0.0000   0.0000   0.0000   0.00    2.1   0.00
2022/07/09 01:59:36.000  -2183019.1197   4364508.6088   4093123.7898   2   8   0.0387   0.0653   0.0548   0.0000   0.0000   0.0000   0.00    2.1   0.00
2022/07/09 01:59:37.000  -2183019.1225   4364508.6255   4093123.8017   2   8   0.0386   0.0650   0.0545   0.0000   0.0000   0.0000   0.00    2.1   0.00
2022/07/09 01:59:38.000  -2183019.1143   4364508.6104   4093123.7877   2   8   0.0385   0.0647   0.0543   0.0000   0.0000   0.0000   0.00    2.1   0.00
2022/07/09 01:59:39.000  -2183019.1164   4364508.6274   4093123.7980   2   8   0.0385   0.0644   0.0540   0.0000   0.0000   0.0000   0.00    2.1   0.00
2022/07/09 01:59:40.000  -2183019.1113   4364508.6194   4093123.7913   2   8   0.0384   0.0641   0.0537   0.0000   0.0000   0.0000   0.00    2.1   0.00
2022/07/09 01:59:41.000  -2183019.1114   4364508.6198   4093123.7901   2   8   0.0383   0.0639   0.0535   0.0000   0.0000   0.0000   0.00    2.1   0.00
2022/07/09 01:59:42.000  -2183019.1102   4364508.6277   4093123.7934   2   8   0.0382   0.0636   0.0532   0.0000   0.0000   0.0000   0.00    2.1   0.00
2022/07/09 01:59:43.000  -2183019.1061   4364508.6254   4093123.7914   2   8   0.0381   0.0633   0.0530   0.0000   0.0000   0.0000   0.00    2.1   0.00
2022/07/09 01:59:44.000  -2183019.1009   4364508.6237   4093123.7881   2   8   0.0380   0.0631   0.0528   0.0000   0.0000   0.0000   0.00    2.0   0.00
2022/07/09 01:59:45.000  -2183019.1049   4364508.6335   4093123.7928   2   8   0.0379   0.0628   0.0525   0.0000   0.0000   0.0000   0.00    2.0   0.00
2022/07/09 01:59:46.000  -2183019.1052   4364508.6348   4093123.7919   2   8   0.0379   0.0625   0.0523   0.0000   0.0000   0.0000   0.00    2.0   0.00
2022/07/09 01:59:47.000  -2183019.1035   4364508.6400   4093123.7926   2   8   0.0378   0.0623   0.0520   0.0000   0.0000   0.0000   0.00    2.0   0.00
2022/07/09 01:59:48.000  -2183019.1008   4364508.6490   4093123.7945   2   8   0.0377   0.0620   0.0518   0.0000   0.0000   0.0000   0.00    2.0   0.00
2022/07/09 01:59:49.000  -2183019.0866   4364508.6244   4093123.7784   2   8   0.0376   0.0617   0.0516   0.0000   0.0000   0.0000   0.00    2.0   0.00
2022/07/09 01:59:50.000  -2183019.0963   4364508.6282   4093123.7843   2   8   0.0375   0.0615   0.0513   0.0000   0.0000   0.0000   0.00    2.0   0.00
2022/07/09 01:59:51.000  -2183019.8255   4364508.2783   4093123.7304   2   8   0.0374   0.0612   0.0511   0.0000   0.0000   0.0000   0.00    2.0   0.00
2022/07/09 01:59:52.000  -2183021.3829   4364507.6528   4093123.5702   2   8   0.0373   0.0610   0.0509   0.0000   0.0000   0.0000   0.00    2.0   0.00
2022/07/09 01:59:53.000  -2183023.5717   4364506.9063   4093123.2052   2   8   0.0373   0.0607   0.0506   0.0000   0.0000   0.0000   0.00    2.0   0.00
2022/07/09 01:59:54.000  -2183026.1737   4364506.1431   4093122.5901   2   8   0.0372   0.0605   0.0504   0.0000   0.0000   0.0000   0.00    2.0   0.00
2022/07/09 01:59:55.000  -2183028.8942   4364505.4122   4093121.9045   2   8   0.0371   0.0602   0.0502   0.0000   0.0000   0.0000   0.00    2.0   0.00
2022/07/09 01:59:56.000  -2183031.5661   4364504.7038   4093121.2057   2   8   0.0370   0.0600   0.0500   0.0000   0.0000   0.0000   0.00    2.0   0.00
2022/07/09 01:59:57.000  -2183034.1539   4364504.0435   4093120.5904   2   8   0.0369   0.0597   0.0498   0.0000   0.0000   0.0000   0.00    2.0   0.00
2022/07/09 01:59:58.000  -2183036.6681   4364503.3445   4093119.9864   2   8   0.0369   0.0595   0.0495   0.0000   0.0000   0.0000   0.00    2.1   0.00
2022/07/09 01:59:59.000  -2183039.2274   4364502.5299   4093119.5909   2   8   0.0368   0.0592   0.0493   0.0000   0.0000   0.0000   0.00    2.0   0.00
2022/07/09 02:00:00.000  -2183041.8685   4364501.6412   4093119.1372   2   7   0.0367   0.0604   0.0502   0.0000   0.0000   0.0000   0.00    1.6   0.00
2022/07/09 02:00:01.000  -2183044.5126   4364500.7274   4093118.6707   2   6   0.0369   0.0615   0.0508   0.0000   0.0000   0.0000   0.00    1.0   0.00
2022/07/09 02:00:02.000  -2183047.0914   4364499.8558   4093118.2161   2   5   0.0373   0.0660   0.0516   0.0000   0.0000   0.0000   0.00    1.1   0.00
2022/07/09 02:00:03.000  -2183049.5056   4364498.4411   4093117.9005   2   3   0.0455   1.4400   0.3934   0.0000   0.0000   0.0000   0.00    0.0   0.00
2022/07/09 02:00:04.000  -2183051.7367   4364497.5472   4093117.7420   2   4   0.0415   0.9724   0.2675   0.0000   0.0000   0.0000   0.00    0.0   0.00
2022/07/09 02:00:05.000  -2183053.6637   4364497.3006   4093117.6890   2   4   0.0395   0.6889   0.1919   0.0000   0.0000   0.0000   0.00    1.1   0.00
2022/07/09 02:00:06.000  -2183054.6577   4364497.0420   4093117.6455   2   4   0.0388   0.5627   0.1587   0.0000   0.0000   0.0000   0.00    1.1   0.00
2022/07/09 02:00:07.000  -2183055.8866   4364495.6483   4093117.2115   2   4   0.0384   0.4873   0.1392   0.0000   0.0000   0.0000   0.00    1.1   0.00
2022/07/09 02:00:08.000  -2183057.0358   4364495.2029   4093116.2774   2   6   0.0419   0.4202   0.1195   0.0000   0.0000   0.0000   0.00    0.0   0.00
2022/07/09 02:00:09.000  -2183058.7610   4364495.4696   4093115.1125   2   6   0.0410   0.3783   0.1082   0.0000   0.0000   0.0000   0.00    0.0   0.00
2022/07/09 02:00:10.000  -2183061.5897   4364496.2881   4093114.3389   2   7   0.0392   0.3469   0.0991   0.0000   0.0000   0.0000   0.00    0.0   0.00
2022/07/09 02:00:11.000  -2183063.0468   4364496.7384   4093111.3562   2   5   0.0405   0.3240   0.0952   0.0000   0.0000   0.0000   0.00    0.0   0.00
2022/07/09 02:00:12.000  -2183064.6315   4364498.0061   4093109.3807   2   5   0.0404   0.3051   0.0909   0.0000   0.0000   0.0000   0.00    0.0   0.00
2022/07/09 02:00:13.000  -2183066.0218   4364499.5874   4093107.5515   2   5   0.0547   0.2907   0.0962   0.0000   0.0000   0.0000   0.00    1.0   0.00
2022/07/09 02:00:14.000  -2184479.6194   4365565.9281   4094651.6846   2   6   0.0424   0.2758   0.0856   0.0000   0.0000   0.0000   0.00    1.0   0.00
2022/07/09 02:00:15.000  -2184348.6290   4365466.8693   4094507.6836   2   6   0.0418   0.2639   0.0828   0.0000   0.0000   0.0000   0.00    1.0   0.00
2022/07/09 02:00:16.000  -2184264.7139   4365402.1278   4094413.6484   2   6   0.0415   0.2534   0.0805   0.0000   0.0000   0.0000   0.00    1.0   0.00
2022/07/09 02:00:17.000  -2184206.1249   4365356.1320   4094346.5732   2   6   0.0413   0.2441   0.0785   0.0000   0.0000   0.0000   0.00    1.2   0.00
2022/07/09 02:00:18.000  -2183612.2503   4364908.8881   4093696.8177   2   4   0.0538   0.2372   0.0854   0.0000   0.0000   0.0000   0.00    1.5   0.00
2022/07/09 02:00:19.000  -2183611.9109   4364913.0321   4093694.6994   2   4   0.0538   0.2297   0.0840   0.0000   0.0000   0.0000   0.00    1.1   0.00
2022/07/09 02:00:20.000  -2183611.5135   4364912.0370   4093691.0540   2   3   0.1290   0.2352   0.1370   0.0000   0.0000   0.0000   0.00    1.2   0.00
2022/07/09 02:00:21.000  -2183612.2427   4364914.1729   4093688.9923   2   5   0.0537   0.2181   0.0819   0.0000   0.0000   0.0000   0.00    1.5   0.00
2022/07/09 02:00:22.000  -2183612.2815   4364918.8347   4093687.0509   2   5   0.0544   0.2105   0.0806   0.0000   0.0000   0.0000   0.00    1.0   0.00
2022/07/09 02:00:23.000  -2183612.4324   4364920.3229   4093684.3777   2   5   0.0540   0.2053   0.0797   0.0000   0.0000   0.0000   0.00    1.6   0.00
2022/07/09 02:00:24.000  -2179680.8656   4360889.8463   4089030.2822   2   5   0.0538   0.2004   0.0788   0.0000   0.0000   0.0000   0.00    1.2   0.00
2022/07/09 02:00:25.000  -2179685.8787   4360941.9089   4089044.0630   2   5   0.0537   0.1960   0.0781   0.0000   0.0000   0.0000   0.00    2.7   0.00
2022/07/09 02:00:26.000  -2183617.7635   4365021.5661   4093701.2894   2   5   0.0536   0.1918   0.0773   0.0000   0.0000   0.0000   0.00    1.7   0.00
2022/07/09 02:00:27.000  -2183617.0852   4365019.5806   4093697.2710   2   6   0.0535   0.1879   0.0767   0.0000   0.0000   0.0000   0.00    1.2   0.00
2022/07/09 02:00:28.000  -2183614.9303   4365016.0032   4093691.0608   2   3  16.0775  16.6940  19.0435   0.0000   0.0000   0.0000   0.00    0.0   0.00
2022/07/09 02:00:29.000  -2183620.7238   4365020.9565   4093694.2969   2   3  16.0758  16.6926  19.0364   0.0000   0.0000   0.0000   0.00    0.0   0.00
2022/07/09 02:00:30.000  -2183080.9340   4364464.9026   4093052.9764   2   4   1.3990   1.4630   1.6575   0.0000   0.0000   0.0000   0.00    0.0   0.00
2022/07/09 02:00:31.000  -2183226.1464   4364618.2180   4093222.3762   2   3   2.4475   2.5155   2.8881   0.0000   0.0000   0.0000   0.00    0.0   0.00
2022/07/09 02:00:32.000  -2183218.6535   4364612.5574   4093210.7109   2   3   1.7662   1.7985   2.0782   0.0000   0.0000   0.0000   0.00    0.0   0.00
2022/07/09 02:00:33.000  -2183214.7923   4364610.6925   4093203.4090   2   3   1.4646   1.4780   1.7186   0.0000   0.0000   0.0000   0.00    0.0   0.00
2022/07/09 02:00:34.000  -2183211.0525   4364609.0994   4093196.3182   2   3   1.2861   1.2868   1.5052   0.0000   0.0000   0.0000   0.00    0.0   0.00
2022/07/09 02:00:35.000  -2183208.2319   4364608.2555   4093190.2624   2   3   1.1654   1.1565   1.3605   0.0000   0.0000   0.0000   0.00    0.0   0.00
2022/07/09 02:00:36.000  -2183205.3395   4364607.3143   4093184.0983   2   3   1.0772   1.0605   1.2545   0.0000   0.0000   0.0000   0.00    0.0   0.00
2022/07/09 02:00:37.000  -2183142.9468   4364550.1007   4093109.0301   2   4   1.0032   0.9819   1.1661   0.0000   0.0000   0.0000   0.00    0.0   0.00
2022/07/09 02:00:38.000  -2183077.5081   4364487.7502   4093030.0285   2   4   0.9788   1.0379   1.1586   0.0000   0.0000   0.0000   0.00    0.0   0.00
2022/07/09 02:00:39.000  -2183133.8130   4364548.6453   4093093.9171   2   5   2.1260   2.1982   2.5065   0.0000   0.0000   0.0000   0.00    0.0   0.00
2022/07/09 02:00:40.000  -2183105.2447   4364521.8192   4093057.6975   2   6   1.0701   1.1110   1.2612   0.0000   0.0000   0.0000   0.00    0.0   0.00
2022/07/09 02:00:41.000  -2183102.1165   4364521.0544   4093051.4286   2   6   0.8123   0.8464   0.9571   0.0000   0.0000   0.0000   0.00    0.0   0.00
2022/07/09 02:00:42.000  -2183098.9564   4364520.3609   4093045.1738   2   6   0.6733   0.7060   0.7936   0.0000   0.0000   0.0000   0.00    0.0   0.00
2022/07/09 02:00:43.000  -2183097.4953   4364521.2238   4093041.0449   2   6   0.5877   0.6196   0.6928   0.0000   0.0000   0.0000   0.00    0.0   0.00
2022/07/09 02:00:44.000  -2183096.8006   4364522.6802   4093037.9288   2   6   0.5281   0.5597   0.6227   0.0000   0.0000   0.0000   0.00    0.0   0.00
2022/07/09 02:00:45.000  -2183096.3664   4364524.3522   4093035.3701   2   6   0.4836   0.5149   0.5703   0.0000   0.0000   0.0000   0.00    0.0   0.00
2022/07/09 02:00:46.000  -2183096.0803   4364526.4356   4093033.2292   1   6   0.4487   0.4797   0.5292   0.0000   0.0000   0.0000   0.00    5.4   0.00
2022/07/09 02:00:47.000  -2183096.0016   4364527.7122   4093031.1523   2   6   0.4203   0.4512   0.4959   0.0000   0.0000   0.0000   0.00    1.5   0.00
2022/07/09 02:00:48.000  -2183094.3036   4364527.7161   4093027.4462   2   7   0.3733   0.4069   0.4412   0.0000   0.0000   0.0000   0.00    1.0   0.00
2022/07/09 02:00:49.000  -2198087.6160   4376869.4596   4123038.1612   2   8   0.3307   0.3667   0.3915   0.0000   0.0000   0.0000   0.00    1.2   0.00
2022/07/09 02:00:50.000  -2191417.6405   4370828.6591   4111461.3168   2   8   0.3001   0.3379   0.3561   0.0000   0.0000   0.0000   0.00    1.5   0.00
2022/07/09 02:00:51.000  -2187414.9576   4367159.9226   4104523.3689   2   8   0.2767   0.3159   0.3289   0.0000   0.0000   0.0000   0.00    1.7   0.00
2022/07/09 02:00:52.000  -2184908.9583   4364820.2454   4100220.9901   2   8   0.2581   0.2984   0.3073   0.0000   0.0000   0.0000   0.00    1.9   0.00
2022/07/09 02:00:53.000  -2181719.1692   4361731.0660   4094771.9876   2   7   0.2397   0.2816   0.2861   0.0000   0.0000   0.0000   0.00    2.8   0.00
2022/07/09 02:00:54.000  -2180838.3575   4361431.7143   4092840.6877   2   7   0.2251   0.2695   0.2696   0.0000   0.0000   0.0000   0.00    1.0   0.00
2022/07/09 02:00:55.000  -2180262.8599   4360791.8884   4091462.5808   2   7   0.2129   0.2588   0.2557   0.0000   0.0000   0.0000   0.00    1.1   0.00
2022/07/09 02:00:56.000  -2180215.7720   4360724.5930   4090935.7845   2   7   0.2024   0.2497   0.2439   0.0000   0.0000   0.0000   0.00    1.0   0.00
2022/07/09 02:00:57.000  -2180227.4903   4360718.2573   4090605.9822   2   7   0.1934   0.2418   0.2337   0.0000   0.0000   0.0000   0.00    1.1   0.00
2022/07/09 02:00:58.000  -2181795.1623   4362469.2765   4091087.2156   2   8   0.1844   0.2326   0.2229   0.0000   0.0000   0.0000   0.00    1.0   0.00
2022/07/09 02:00:59.000  -2181907.9216   4362605.9781   4091225.0249   2   8   0.1762   0.2241   0.2136   0.0000   0.0000   0.0000   0.00    1.0   0.00
2022/07/09 02:01:00.000  -2182002.8760   4362722.7478   4091341.5510   2   8   0.1692   0.2168   0.2054   0.0000   0.0000   0.0000   0.00    1.0   0.00
2022/07/09 02:01:01.000  -2182083.9113   4362823.8189   4091441.4162   2   8   0.1629   0.2103   0.1982   0.0000   0.0000   0.0000   0.00    1.0   0.00
2022/07/09 02:01:02.000  -2182153.9399   4362912.3606   4091528.0596   2   8   0.1573   0.2045   0.1917   0.0000   0.0000   0.0000   0.00    1.0   0.00
2022/07/09 02:01:03.000  -2182215.0120   4362990.6421   4091603.9589   2   8   0.1523   0.1992   0.1859   0.0000   0.0000   0.0000   0.00    1.0   0.00
2022/07/09 02:01:04.000  -2182268.7851   4363060.4849   4091671.0539   2   8   0.1477   0.1944   0.1806   0.0000   0.0000   0.0000   0.00    1.1   0.00
2022/07/09 02:01:05.000  -2182316.4910   4363123.2456   4091730.8294   2   8   0.1435   0.1899   0.1757   0.0000   0.0000   0.0000   0.00    1.0   0.00
2022/07/09 02:01:06.000  -2182359.0974   4363180.0012   4091784.4456   2   8   0.1396   0.1858   0.1712   0.0000   0.0000   0.0000   0.00    1.0   0.00
2022/07/09 02:01:07.000  -2182397.3932   4363231.6487   4091832.8343   2   8   0.1360   0.1820   0.1671   0.0000   0.0000   0.0000   0.00    2.3   0.00
2022/07/09 02:01:08.000  -2182432.0126   4363278.8988   4091876.7599   2   8   0.1327   0.1784   0.1633   0.0000   0.0000   0.0000   0.00    1.0   0.00
2022/07/09 02:01:09.000  -2182463.9911   4363322.5236   4091917.3831   2   9   0.1295   0.1750   0.1597   0.0000   0.0000   0.0000   0.00    1.0   0.00
2022/07/09 02:01:10.000  -2232449.7758   4390361.2973   4085187.1464   2   9   0.1266   0.1719   0.1563   0.0000   0.0000   0.0000   0.00    1.0   0.00
2022/07/09 02:01:11.000  -2212974.2613   4378851.2798   4083649.1061   2   9   0.1238   0.1689   0.1531   0.0000   0.0000   0.0000   0.00    1.4   0.00
2022/07/09 02:01:12.000  -2202380.1105   4372346.9149   4081705.0023   2   9   0.1212   0.1661   0.1502   0.0000   0.0000   0.0000   0.00    1.3   0.00
2022/07/09 02:01:13.000  -2176565.5596   4358125.6477   4083987.3535   2   9   0.1187   0.1635   0.1473   0.0000   0.0000   0.0000   0.00    1.1   0.00
2022/07/09 02:01:14.000  -2176835.3352   4358372.3977   4084299.7784   2   9   0.1163   0.1610   0.1446   0.0000   0.0000   0.0000   0.00    1.6   0.00
2022/07/09 02:01:15.000  -2177084.4931   4358599.9408   4084588.4976   2   9   0.1140   0.1586   0.1421   0.0000   0.0000   0.0000   0.00    1.1   0.00
2022/07/09 02:01:16.000  -2177315.3475   4358810.4859   4084856.1840   2   9   0.1119   0.1563   0.1397   0.0000   0.0000   0.0000   0.00    2.0   0.00
2022/07/09 02:01:17.000  -2177529.8524   4359005.8711   4085105.1036   2   9   0.1099   0.1541   0.1374   0.0000   0.0000   0.0000   0.00    1.1   0.00
2022/07/09 02:01:18.000  -2177729.7328   4359187.7307   4085337.2451   2   9   0.1080   0.1520   0.1352   0.0000   0.0000   0.0000   0.00    1.1   0.00
2022/07/09 02:01:19.000  -2177916.4397   4359357.4424   4085554.2904   2   9   0.1062   0.1500   0.1332   0.0000   0.0000   0.0000   0.00    1.7   0.00
2022/07/09 02:01:20.000  -2178091.2824   4359516.2271   4085757.7227   2   9   0.1045   0.1481   0.1312   0.0000   0.0000   0.0000   0.00    2.2   0.00
2022/07/09 02:01:21.000  -2178255.3662   4359665.1373   4085948.8528   2   9   0.1028   0.1463   0.1294   0.0000   0.0000   0.0000   0.00    1.1   0.00
2022/07/09 02:01:22.000  -2178409.6835   4359805.1006   4086128.8055   2   9   0.1013   0.1445   0.1276   0.0000   0.0000   0.0000   0.00    1.0   0.00
2022/07/09 02:01:23.000  -2178555.1068   4359936.9406   4086298.5881   2   9   0.0998   0.1428   0.1259   0.0000   0.0000   0.0000   0.00    1.5   0.00
2022/07/09 02:01:24.000  -2178692.3813   4360061.3554   4086459.0759   2   9   0.0983   0.1411   0.1243   0.0000   0.0000   0.0000   0.00    1.7   0.00
2022/07/09 02:01:25.000  -2178822.2116   4360178.9920   4086611.0608   2   9   0.0970   0.1396   0.1227   0.0000   0.0000   0.0000   0.00    1.3   0.00
2022/07/09 02:01:26.000  -2178945.2044   4360290.4343   4086755.2488   2   9   0.0956   0.1380   0.1212   0.0000   0.0000   0.0000   0.00    1.0   0.00
2022/07/09 02:01:27.000  -2179061.8989   4360396.1796   4086892.2601   2   9   0.0944   0.1365   0.1197   0.0000   0.0000   0.0000   0.00    1.2   0.00
2022/07/09 02:01:28.000  -2179172.7825   4360496.6751   4087022.6626   2   9   0.0931   0.1351   0.1183   0.0000   0.0000   0.0000   0.00    1.4   0.00
2022/07/09 02:01:29.000  -2179278.3043   4360592.3376   4087146.9506   2   9   0.0920   0.1337   0.1170   0.0000   0.0000   0.0000   0.00    1.1   0.00
2022/07/09 02:01:30.000  -2179379.6058   4360683.8944   4087266.2752   1   9   0.0908   0.1323   0.1157   0.0000   0.0000   0.0000   0.00    3.2   0.00
2022/07/09 02:01:31.000  -2179474.7735   4360770.5918   4087378.9976   2   9   0.0897   0.1310   0.1144   0.0000   0.0000   0.0000   0.00    1.1   0.00
2022/07/09 02:01:32.000  -2179566.4163   4360853.8189   4087487.5337   2   9   0.0887   0.1298   0.1132   0.0000   0.0000   0.0000   0.00    1.1   0.00
2022/07/09 02:01:33.000  -2179654.0607   4360933.4776   4087591.5440   2   9   0.0876   0.1285   0.1120   0.0000   0.0000   0.0000   0.00    1.2   0.00
2022/07/09 02:01:34.000  -2179737.9904   4361009.8318   4087691.3405   2   9   0.0866   0.1273   0.1109   0.0000   0.0000   0.0000   0.00    1.6   0.00
2022/07/09 02:01:35.000  -2179818.4248   4361083.0855   4087787.1916   2   9   0.0857   0.1261   0.1098   0.0000   0.0000   0.0000   0.00    1.2   0.00
2022/07/09 02:01:36.000  -2179895.6060   4361153.4588   4087879.3694   2   9   0.0848   0.1250   0.1087   0.0000   0.0000   0.0000   0.00    1.2   0.00
2022/07/09 02:01:37.000  -2179971.6872   4361226.0035   4087971.3699   2  10   0.0838   0.1238   0.1076   0.0000   0.0000   0.0000   0.00    1.1   0.00
2022/07/09 02:01:38.000  -2180044.5876   4361295.2940   4088059.6343   2  10   0.0829   0.1226   0.1065   0.0000   0.0000   0.0000   0.00    1.0   0.00
2022/07/09 02:01:39.000  -2180114.6671   4361361.9249   4088144.6642   2  10   0.0820   0.1214   0.1055   0.0000   0.0000   0.0000   0.00    1.3   0.00
2022/07/09 02:01:40.000  -2180182.0886   4361426.0464   4088226.6605   2  10   0.0812   0.1203   0.1045   0.0000   0.0000   0.0000   0.00    1.2   0.00
2022/07/09 02:01:41.000  -2180247.0162   4361487.8410   4088305.8015   2  10   0.0804   0.1192   0.1035   0.0000   0.0000   0.0000   0.00    1.1   0.00
2022/07/09 02:01:42.000  -2180323.8574   4361573.3573   4088407.0903   2  11   0.0795   0.1178   0.1023   0.0000   0.0000   0.0000   0.00    1.4   0.00
2022/07/09 02:01:43.000  -2180396.8436   4361653.9190   4088502.8154   2  11   0.0786   0.1165   0.1009   0.0000   0.0000   0.0000   0.00    1.0   0.00
2022/07/09 02:01:44.000  -2180466.7484   4361730.8926   4088594.6514   2  11   0.0777   0.1153   0.0997   0.0000   0.0000   0.0000   0.00    1.4   0.00
2022/07/09 02:01:45.000  -2180589.8766   4361861.0991   4088751.4548   2  10   0.0770   0.1143   0.0991   0.0000   0.0000   0.0000   0.00    1.0   0.00
2022/07/09 02:01:46.000  -2180706.1148   4361983.6481   4088900.4071   2  10   0.0763   0.1133   0.0982   0.0000   0.0000   0.0000   0.00    1.6   0.00
2022/07/09 02:01:47.000  -2180815.7445   4362098.9738   4089041.2872   2  10   0.0756   0.1122   0.0973   0.0000   0.0000   0.0000   0.00    1.3   0.00
2022/07/09 02:01:48.000  -2180917.0519   4362201.4481   4089170.5663   2  10   0.0749   0.1114   0.0966   0.0000   0.0000   0.0000   0.00    1.9   0.00
2022/07/09 02:01:49.000  -2180970.5926   4362260.2756   4089242.5926   2  11   0.0741   0.1102   0.0953   0.0000   0.0000   0.0000   0.00    1.2   0.00
2022/07/09 02:01:50.000  -2181021.6454   4362315.9567   4089310.7585   2  11   0.0734   0.1091   0.0942   0.0000   0.0000   0.0000   0.00    1.1   0.00
2022/07/09 02:01:51.000  -2181070.8272   4362369.4964   4089376.5679   2  11   0.0727   0.1081   0.0933   0.0000   0.0000   0.0000   0.00    1.1   0.00
2022/07/09 02:01:52.000  -2181118.2342   4362421.0230   4089440.1407   2  11   0.0720   0.1071   0.0923   0.0000   0.0000   0.0000   0.00    1.3   0.00
2022/07/09 02:01:53.000  -2181202.0028   4362507.2570   4089548.1823   2  10   0.0715   0.1064   0.0921   0.0000   0.0000   0.0000   0.00    1.2   0.00
2022/07/09 02:01:54.000  -2181281.8860   4362589.9266   4089652.4181   2  10   0.0709   0.1055   0.0913   0.0000   0.0000   0.0000   0.00    1.7   0.00
2022/07/09 02:01:55.000  -2181357.7939   4362668.3557   4089751.8024   2  10   0.0703   0.1046   0.0905   0.0000   0.0000   0.0000   0.00    1.2   0.00
2022/07/09 02:01:56.000  -2181397.2126   4362711.2541   4089806.0246   2  11   0.0697   0.1036   0.0894   0.0000   0.0000   0.0000   0.00    1.9   0.00
2022/07/09 02:01:57.000  -2181435.0584   4362752.1449   4089857.5521   2  11   0.0690   0.1027   0.0885   0.0000   0.0000   0.0000   0.00    2.7   0.00
2022/07/09 02:01:58.000  -2181471.6934   4362791.6781   4089907.5489   2  11   0.0685   0.1018   0.0877   0.0000   0.0000   0.0000   0.00    1.1   0.00
2022/07/09 02:01:59.000  -2181536.6268   4362857.6429   4089992.5033   2  10   0.0680   0.1013   0.0875   0.0000   0.0000   0.0000   0.00    1.2   0.00
2022/07/09 02:02:00.000  -2181598.9315   4362921.4325   4090075.1825   2  10   0.0674   0.1004   0.0868   0.0000   0.0000   0.0000   0.00    2.5   0.00
2022/07/09 02:02:01.000  -2181658.2419   4362981.9724   4090154.1130   2  10   0.0669   0.0997   0.0862   0.0000   0.0000   0.0000   0.00    1.2   0.00
2022/07/09 02:02:02.000  -2181689.3037   4363015.7404   4090197.8754   2  11   0.0664   0.0988   0.0851   0.0000   0.0000   0.0000   0.00    1.2   0.00
2022/07/09 02:02:03.000  -2181719.1428   4363047.8212   4090239.3139   2  11   0.0658   0.0980   0.0843   0.0000   0.0000   0.0000   0.00    1.5   0.00
2022/07/09 02:02:04.000  -2181748.1058   4363078.9362   4090279.6527   2  11   0.0653   0.0972   0.0836   0.0000   0.0000   0.0000   0.00    1.5   0.00
2022/07/09 02:02:05.000  -2181799.5713   4363130.5847   4090348.0375   2  10   0.0649   0.0967   0.0835   0.0000   0.0000   0.0000   0.00    1.1   0.00
2022/07/09 02:02:06.000  -2181849.1113   4363180.8296   4090415.0013   2  10   0.0645   0.0960   0.0829   0.0000   0.0000   0.0000   0.00    1.5   0.00
2022/07/09 02:02:07.000  -2181896.5603   4363228.9295   4090479.4199   2  10   0.0640   0.0953   0.0823   0.0000   0.0000   0.0000   0.00    1.1   0.00
2022/07/09 02:02:08.000  -2181921.4289   4363255.9340   4090515.3390   2  11   0.0635   0.0945   0.0813   0.0000   0.0000   0.0000   0.00    2.1   0.00
2022/07/09 02:02:09.000  -2181945.4145   4363281.6651   4090549.3828   2  11   0.0630   0.0938   0.0806   0.0000   0.0000   0.0000   0.00    1.3   0.00
2022/07/09 02:02:10.000  -2181968.7476   4363306.6886   4090582.6181   2  11   0.0626   0.0931   0.0799   0.0000   0.0000   0.0000   0.00    1.3   0.00
2022/07/09 02:02:11.000  -2182009.7445   4363346.1599   4090637.7256   2  10   0.0622   0.0927   0.0799   0.0000   0.0000   0.0000   0.00    1.2   0.00
2022/07/09 02:02:12.000  -2182031.8273   4363370.2757   4090670.2155   2  11   0.0617   0.0919   0.0789   0.0000   0.0000   0.0000   0.00    1.1   0.00
2022/07/09 02:02:13.000  -2182053.0809   4363393.0924   4090700.8279   2  11   0.0613   0.0912   0.0782   0.0000   0.0000   0.0000   0.00    2.1   0.00
2022/07/09 02:02:14.000  -2182073.8114   4363415.3359   4090730.7673   2  11   0.0609   0.0906   0.0776   0.0000   0.0000   0.0000   0.00    1.2   0.00
2022/07/09 02:02:15.000  -2182094.0178   4363437.0251   4090760.0620   2  11   0.0605   0.0899   0.0770   0.0000   0.0000   0.0000   0.00    1.4   0.00
2022/07/09 02:02:16.000  -2182113.7293   4363458.1794   4090788.7358   2  11   0.0601   0.0893   0.0764   0.0000   0.0000   0.0000   0.00    1.2   0.00
2022/07/09 02:02:17.000  -2182148.8774   4363492.8277   4090837.0342   2  10   0.0597   0.0890   0.0765   0.0000   0.0000   0.0000   0.00    1.5   0.00
2022/07/09 02:02:18.000  -2182182.9725   4363527.0584   4090885.0372   2  10   0.0594   0.0885   0.0760   0.0000   0.0000   0.0000   0.00    1.1   0.00
2022/07/09 02:02:19.000  -2182215.8673   4363560.2632   4090931.6661   2  10   0.0590   0.0879   0.0755   0.0000   0.0000   0.0000   0.00    1.1   0.00
2022/07/09 02:02:20.000  -2182233.2067   4363579.3141   4090958.1750   2  11   0.0586   0.0872   0.0746   0.0000   0.0000   0.0000   0.00    1.6   0.00
2022/07/09 02:02:21.000  -2182249.9309   4363597.3002   4090983.0319   2  11   0.0582   0.0866   0.0740   0.0000   0.0000   0.0000   0.00    1.8   0.00
2022/07/09 02:02:22.000  -2182266.2772   4363614.8871   4091007.4077   2  11   0.0579   0.0860   0.0734   0.0000   0.0000   0.0000   0.00    2.9   0.00
2022/07/09 02:02:23.000  -2182282.2633   4363632.0854   4091031.3265   2  11   0.0575   0.0854   0.0729   0.0000   0.0000   0.0000   0.00    1.1   0.00
2022/07/09 02:02:24.000  -2182310.8408   4363660.1850   4091071.5545   2  10   0.0572   0.0852   0.0731   0.0000   0.0000   0.0000   0.00    1.0   0.00
2022/07/09 02:02:25.000  -2182338.7576   4363688.4105   4091112.0700   2  10   0.0569   0.0846   0.0726   0.0000   0.0000   0.0000   0.00    1.5   0.00
2022/07/09 02:02:26.000  -2182365.6223   4363715.5137   4091151.2356   2  10   0.0566   0.0841   0.0721   0.0000   0.0000   0.0000   0.00    1.1   0.00
2022/07/09 02:02:27.000  -2182379.8647   4363731.3298   4091173.8377   2  11   0.0562   0.0835   0.0713   0.0000   0.0000   0.0000   0.00    1.1   0.00
2022/07/09 02:02:28.000  -2182393.5622   4363746.1242   4091194.8173   2  11   0.0559   0.0829   0.0707   0.0000   0.0000   0.0000   0.00    1.9   0.00
2022/07/09 02:02:29.000  -2182417.8395   4363769.2347   4091229.4761   2  10   0.0556   0.0827   0.0708   0.0000   0.0000   0.0000   0.00    1.6   0.00
2022/07/09 02:02:30.000  -2182441.4892   4363792.2608   4091264.3363   2  10   0.0553   0.0822   0.0704   0.0000   0.0000   0.0000   0.00    1.1   0.00
2022/07/09 02:02:31.000  -2182454.2548   4363806.6036   4091285.0810   2  11   0.0550   0.0816   0.0695   0.0000   0.0000   0.0000   0.00    1.3   0.00
2022/07/09 02:02:32.000  -2182466.5136   4363819.9189   4091304.2120   2  11   0.0546   0.0811   0.0690   0.0000   0.0000   0.0000   0.00    1.2   0.00
2022/07/09 02:02:33.000  -2182478.5193   4363832.9609   4091323.0279   2  11   0.0543   0.0806   0.0685   0.0000   0.0000   0.0000   0.00    1.6   0.00
2022/07/09 02:02:34.000  -2182499.8483   4363853.2914   4091354.0784   2  10   0.0541   0.0804   0.0687   0.0000   0.0000   0.0000   0.00    1.1   0.00
2022/07/09 02:02:35.000  -2182511.4634   4363866.4422   4091373.3593   2  11   0.0537   0.0797   0.0676   0.0000   0.0000   0.0000   0.00    1.3   0.00
