%  GPST                      x-ecef(m)      y-ecef(m)      z-ecef(m)   Q  ns   sdx(m)   sdy(m)   sdz(m)  sdxy(m)  sdyz(m)  sdzx(m) age(s)  ratio  sigma
2022/07/09 01:56:02.200  -2183026.8282   4364516.0381   4093150.0748   6   4   3.8190  31.6626  32.0980   0.0000   0.0000   0.0000   0.00    0.0   0.00
2022/07/09 01:56:02.400  -2183026.3645   4364511.1535   4093145.0964   6   4   3.1084  28.1098  28.4989   0.0000   0.0000   0.0000   0.00    0.0   0.05
2022/07/09 01:56:02.600  -2183026.5513   4364513.7430   4093147.7161   6   4   2.7110  25.2525  25.6033   0.0000   0.0000   0.0000   0.00    0.0   0.02
2022/07/09 01:56:02.800  -2183026.7988   4364516.8467   4093150.8445   6   4   2.4506  23.2092  23.5323   0.0000   0.0000   0.0000   0.00    0.0   0.02
2022/07/09 01:56:03.000  -2183026.8592   4364518.1884   4093152.2004   6   4   2.2654  21.7058  22.0085   0.0000   0.0000   0.0000   0.00    0.0   0.03
2022/07/09 01:56:03.200  -2183026.6995   4364516.3899   4093150.3464   6   4   2.1259  20.5522  20.8392   0.0000   0.0000   0.0000   0.00    0.0   0.03
2022/07/09 01:56:03.400  -2183027.4105   4364524.8593   4093158.9080   6   4   2.0163  19.6362  19.9107   0.0000   0.0000   0.0000   0.00    0.0   0.06
2022/07/09 01:56:03.600  -2183027.3837   4364524.5976   4093158.6145   6   4   1.9276  18.8896  19.1539   0.0000   0.0000   0.0000   0.00    0.0   0.05
2022/07/09 01:56:03.800  -2183027.2985   4364523.7770   4093157.7696   6   4   1.8541  18.2683  18.5240   0.0000   0.0000   0.0000   0.00    0.0   0.05
2022/07/09 01:56:04.000  -2183027.3266   4364524.0887   4093158.0547   6   4   1.7921  17.7425  17.9910   0.0000   0.0000   0.0000   0.00    0.0   0.05
2022/07/09 01:56:04.200  -2183026.5188   4364515.3195   4093149.1324   6   4   1.7390  17.2914  17.5337   0.0000   0.0000   0.0000   0.00    0.0   0.04
2022/07/09 01:56:04.400  -2183026.7244   4364517.7935   4093151.6161   6   4   1.6931  16.8999  17.1368   0.0000   0.0000   0.0000   0.00    0.0   0.04
2022/07/09 01:56:04.600  -2183026.7003   4364517.4908   4093151.2911   6   4   1.6528  16.5568  16.7890   0.0000   0.0000   0.0000   0.00    0.0   0.05
2022/07/09 01:56:04.800  -2183026.5849   4364516.1944   4093149.9730   6   4   1.6172  16.2535  16.4815   0.0000   0.0000   0.0000   0.00    0.0   0.06
2022/07/09 01:56:05.000  -2183026.6623   4364517.2355   4093150.9866   6   4   1.5856  15.9835  16.2078   0.0000   0.0000   0.0000   0.00    0.0   0.07
2022/07/09 01:56:05.200  -2183026.7571   4364518.4563   4093152.2052   6   4   1.5573  15.7415  15.9625   0.0000   0.0000   0.0000   0.00    0.0   0.07
2022/07/09 01:56:05.400  -2183026.4879   4364515.5501   4093149.2562   6   4   1.5317  15.5235  15.7413   0.0000   0.0000   0.0000   0.00    0.0   0.07
2022/07/09 01:56:05.600  -2183026.9162   4364520.5167   4093154.2612   6   4   1.5086  15.3260  15.5411   0.0000   0.0000   0.0000   0.00    0.0   0.08
2022/07/09 01:56:05.800  -2183026.3277   4364513.8906   4093147.5686   6   4   1.4876  15.1462  15.3588   0.0000   0.0000   0.0000   0.00    0.0   0.09
2022/07/09 01:56:06.000  -2183025.8863   4364509.0503   4093142.6128   6   4   1.4683  14.9820  15.1923   0.0000   0.0000   0.0000   0.00    0.0   0.10
2022/07/09 01:56:06.200  -2183026.5273   4364516.5934   4093150.2645   6   4   1.4507  14.8314  15.0395   0.0000   0.0000   0.0000   0.00    0.0   0.09
2022/07/09 01:56:06.400  -2183026.3755   4364514.8811   4093148.5028   6   4   1.4345  14.6928  14.8989   0.0000   0.0000   0.0000   0.00    0.0   0.10
2022/07/09 01:56:06.600  -2183026.4282   4364515.5764   4093149.1917   6   4   1.4195  14.5649  14.7692   0.0000   0.0000   0.0000   0.00    0.0   0.10
2022/07/09 01:56:06.800  -2183026.6259   4364517.8348   4093151.4902   6   4   1.4057  14.4465  14.6491   0.0000   0.0000   0.0000   0.00    0.0   0.10
2022/07/09 01:56:07.000  -2183026.3708   4364515.0538   4093148.6479   6   4   1.3928  14.3366  14.5376   0.0000   0.0000   0.0000   0.00    0.0   0.09
2022/07/09 01:56:07.200  -2183026.1299   4364512.4048   4093145.9661   6   4   1.3809  14.2344  14.4339   0.0000   0.0000   0.0000   0.00    0.0   0.10
2022/07/09 01:56:07.400  -2183026.5563   4364517.2086   4093150.8367   6   4   1.3697  14.1390  14.3372   0.0000   0.0000   0.0000   0.00    0.0   0.10
2022/07/09 01:56:07.600  -2183026.6241   4364518.1991   4093151.8110   6   4   1.3593  14.0500  14.2468   0.0000   0.0000   0.0000   0.00    0.0   0.11
2022/07/09 01:56:07.800  -2183026.3919   4364515.8050   4093149.3812   6   4   1.3496  13.9666  14.1622   0.0000   0.0000   0.0000   0.00    0.0   0.11
2022/07/09 01:56:08.000  -2183026.6805   4364518.9081   4093152.5212   6   4   1.3405  13.8885  14.0829   0.0000   0.0000   0.0000   0.00    0.0   0.11
2022/07/09 01:56:08.200  -2183026.5963   4364518.1941   4093151.8061   6   4   1.3319  13.8150  14.0083   0.0000   0.0000   0.0000   0.00    0.0   0.11
2022/07/09 01:56:08.400  -2183026.6274   4364518.6687   4093152.2645   6   4   1.3239  13.7460  13.9382   0.0000   0.0000   0.0000   0.00    0.0   0.11
2022/07/09 01:56:08.600  -2183025.8688   4364510.3006   4093143.7729   6   4   1.3163  13.6809  13.8721   0.0000   0.0000   0.0000   0.00    0.0   0.12
2022/07/09 01:56:08.800  -2183026.0059   4364512.1826   4093145.6874   6   4   1.3092  13.6195  13.8098   0.0000   0.0000   0.0000   0.00    0.0   0.12
2022/07/09 01:56:09.000  -2183025.9060   4364511.0186   4093144.4907   6   4   1.3024  13.5615  13.7509   0.0000   0.0000   0.0000   0.00    0.0   0.12
2022/07/09 01:56:09.200  -2183026.1798   4364514.1852   4093147.6817   6   4   1.2961  13.5067  13.6953   0.0000   0.0000   0.0000   0.00    0.0   0.12
2022/07/09 01:56:09.400  -2183026.6290   4364519.2140   4093152.7931   6   4   1.2900  13.4548  13.6425   0.0000   0.0000   0.0000   0.00    0.0   0.13
2022/07/09 01:56:09.600  -2183026.1486   4364514.0014   4093147.5259   6   4   1.2843  13.4056  13.5925   0.0000   0.0000   0.0000   0.00    0.0   0.14
2022/07/09 01:56:09.800  -2183026.1703   4364514.3646   4093147.8714   6   4   1.2789  13.3589  13.5451   0.0000   0.0000   0.0000   0.00    0.0   0.14
2022/07/09 01:56:10.000  -2183026.7786   4364521.1606   4093154.7653   6   4   1.2738  13.3146  13.5001   0.0000   0.0000   0.0000   0.00    0.0   0.16
2022/07/09 01:56:10.200  -2183026.6770   4364520.0728   4093153.6639   6   4   1.2689  13.2725  13.4573   0.0000   0.0000   0.0000   0.00    0.0   0.16
2022/07/09 01:56:10.400  -2183027.0550   4364524.4015   4093158.0569   6   4   1.2643  13.2324  13.4166   0.0000   0.0000   0.0000   0.00    0.0   0.17
2022/07/09 01:56:10.600  -2183027.0273   4364524.2596   4093157.9148   6   4   1.2599  13.1943  13.3778   0.0000   0.0000   0.0000   0.00    0.0   0.17
2022/07/09 01:56:10.800  -2183026.6575   4364520.2769   4093153.8766   6   4   1.2558  13.1580  13.3409   0.0000   0.0000   0.0000   0.00    0.0   0.16
2022/07/09 01:56:11.000  -2183026.7704   4364521.6047   4093155.2284   6   4   1.2518  13.1233  13.3056   0.0000   0.0000   0.0000   0.00    0.0   0.16
2022/07/09 01:56:11.200  -2183026.5104   4364518.9379   4093152.5208   6   4   1.2480  13.0903  13.2720   0.0000   0.0000   0.0000   0.00    0.0   0.16
2022/07/09 01:56:11.400  -2183026.6133   4364520.0445   4093153.6516   6   4   1.2444  13.0588  13.2400   0.0000   0.0000   0.0000   0.00    0.0   0.17
2022/07/09 01:56:11.600  -2183026.8463   4364522.6122   4093156.2534   6   4   1.2410  13.0287  13.2094   0.0000   0.0000   0.0000   0.00    0.0   0.18
2022/07/09 01:56:11.800  -2183026.0483   4364514.0882   4093147.6157   6   4   1.2377  12.9999  13.1801   0.0000   0.0000   0.0000   0.00    0.0   0.17
2022/07/09 01:56:12.000  -2183026.3215   4364517.1842   4093150.7483   6   4   1.2346  12.9724  13.1521   0.0000   0.0000   0.0000   0.00    0.0   0.18
2022/07/09 01:56:12.200  -2183026.9423   4364524.0705   4093157.7352   6   4   1.2316  12.9461  13.1253   0.0000   0.0000   0.0000   0.00    0.0   0.19
2022/07/09 01:56:12.400  -2183026.6690   4364521.1446   4093154.7762   6   4   1.2288  12.9210  13.0997   0.0000   0.0000   0.0000   0.00    0.0   0.20
2022/07/09 01:56:12.600  -2183026.3550   4364517.7170   4093151.3203   6   4   1.2261  12.8969  13.0752   0.0000   0.0000   0.0000   0.00    0.0   0.19
2022/07/09 01:56:12.800  -2183026.0435   4364514.5345   4093148.0718   6   4   1.2235  12.8738  13.0517   0.0000   0.0000   0.0000   0.00    0.0   0.19
2022/07/09 01:56:13.000  -2183026.4672   4364519.4173   4093153.0382   6   4   1.2210  12.8518  13.0292   0.0000   0.0000   0.0000   0.00    0.0   0.20
2022/07/09 01:56:13.200  -2183026.1722   4364516.1526   4093149.7417   6   4   1.2186  12.8306  13.0076   0.0000   0.0000   0.0000   0.00    0.0   0.20
2022/07/09 01:56:13.400  -2183025.4512   4364508.3265   4093141.7953   6   4   1.2164  12.8103  12.9869   0.0000   0.0000   0.0000   0.00    0.0   0.20
2022/07/09 01:56:13.600  -2183025.9267   4364513.4896   4093147.0248   6   4   1.2142  12.7909  12.9671   0.0000   0.0000   0.0000   0.00    0.0   0.21
2022/07/09 01:56:13.800  -2183025.7102   4364511.2039   4093144.7185   6   4   1.2121  12.7722  12.9480   0.0000   0.0000   0.0000   0.00    0.0   0.21
2022/07/09 01:56:14.000  -2183026.5158   4364520.0375   4093153.6903   6   4   1.2102  12.7543  12.9298   0.0000   0.0000   0.0000   0.00    0.0   0.22
2022/07/09 01:56:14.200  -2183026.4046   4364518.8624   4093152.4886   6   4   1.2083  12.7372  12.9123   0.0000   0.0000   0.0000   0.00    0.0   0.22
2022/07/09 01:56:14.400  -2183026.8070   4364523.5697   4093157.2807   6   4   1.2065  12.7207  12.8954   0.0000   0.0000   0.0000   0.00    0.0   0.23
2022/07/09 01:56:14.600  -2183025.8062   4364512.4450   4093146.0226   6   4   1.2048  12.7049  12.8793   0.0000   0.0000   0.0000   0.00    0.0   0.22
2022/07/09 01:56:14.800  -2183026.0656   4364515.4810   4093149.0678   6   4   1.2031  12.6897  12.8638   0.0000   0.0000   0.0000   0.00    0.0   0.23
2022/07/09 01:56:15.000  -2183026.5649   4364521.1169   4093154.7944   6   4   1.2016  12.6752  12.8489   0.0000   0.0000   0.0000   0.00    0.0   0.23
2022/07/09 01:56:15.200  -2183026.7680   4364523.1807   4093156.9023   6   4   1.2001  12.6612  12.8346   0.0000   0.0000   0.0000   0.00    0.0   0.22
2022/07/09 01:56:15.400  -2183026.6750   4364522.4713   4093156.1837   6   4   1.1986  12.6478  12.8209   0.0000   0.0000   0.0000   0.00    0.0   0.23
2022/07/09 01:56:15.600  -2183026.6253   4364521.8917   4093155.5861   6   4   1.1973  12.6349  12.8077   0.0000   0.0000   0.0000   0.00    0.0   0.23
2022/07/09 01:56:15.800  -2183026.3671   4364519.0475   4093152.7155   6   4   1.1959  12.6225  12.7950   0.0000   0.0000   0.0000   0.00    0.0   0.24
2022/07/09 01:56:16.000  -2183026.1288   4364516.4184   4093150.0568   6   4   1.1947  12.6106  12.7829   0.0000   0.0000   0.0000   0.00    0.0   0.24
2022/07/09 01:56:16.200  -2183026.3046   4364518.5531   4093152.2159   6   4   1.1935  12.5992  12.7712   0.0000   0.0000   0.0000   0.00    0.0   0.24
2022/07/09 01:56:16.400  -2183026.7457   4364523.3380   4093157.0839   6   4   1.1924  12.5883  12.7600   0.0000   0.0000   0.0000   0.00    0.0   0.24
2022/07/09 01:56:16.600  -2183026.5742   4364521.4991   4093155.2242   6   4   1.1913  12.5778  12.7492   0.0000   0.0000   0.0000   0.00    0.0   0.25
2022/07/09 01:56:16.800  -2183026.4068   4364519.8792   4093153.5859   6   4   1.1903  12.5677  12.7389   0.0000   0.0000   0.0000   0.00    0.0   0.26
2022/07/09 01:56:17.000  -2183026.6766   4364522.8502   4093156.5945   6   4   1.1893  12.5580  12.7289   0.0000   0.0000   0.0000   0.00    0.0   0.26
2022/07/09 01:56:17.200  -2183027.0114   4364526.6501   4093160.4513   6   4   1.1884  12.5488  12.7194   0.0000   0.0000   0.0000   0.00    0.0   0.26
2022/07/09 01:56:17.400  -2183026.9104   4364525.6033   4093159.4016   6   4   1.1875  12.5399  12.7102   0.0000   0.0000   0.0000   0.00    0.0   0.26
2022/07/09 01:56:17.600  -2183027.2305   4364529.1011   4093162.9610   6   4   1.1866  12.5313  12.7014   0.0000   0.0000   0.0000   0.00    0.0   0.26
2022/07/09 01:56:17.800  -2183026.9913   4364526.4407   4093160.2659   6   4   1.1858  12.5231  12.6930   0.0000   0.0000   0.0000   0.00    0.0   0.27
2022/07/09 01:56:18.000  -2183026.7017   4364523.3891   4093157.1547   6   4   1.1851  12.5153  12.6849   0.0000   0.0000   0.0000   0.00    0.0   0.26
2022/07/09 01:56:18.200  -2183026.9791   4364526.3874   4093160.2163   6   4   1.1843  12.5078  12.6772   0.0000   0.0000   0.0000   0.00    0.0   0.26
2022/07/09 01:56:18.400  -2183026.3132   4364519.4329   4093153.1770   6   4   1.1837  12.5006  12.6698   0.0000   0.0000   0.0000   0.00    0.0   0.26
2022/07/09 01:56:18.600  -2183026.0976   4364516.9792   4093150.7383   6   4   1.1830  12.4937  12.6627   0.0000   0.0000   0.0000   0.00    0.0   0.26
2022/07/09 01:56:18.800  -2183025.5869   4364511.6001   4093145.2673   6   4   1.1824  12.4871  12.6558   0.0000   0.0000   0.0000   0.00    0.0   0.25
2022/07/09 01:56:19.000  -2183025.6516   4364512.4205   4093146.0900   6   4   1.1818  12.4808  12.6493   0.0000   0.0000   0.0000   0.00    0.0   0.27
2022/07/09 01:56:19.200  -2183025.9891   4364516.2521   4093149.9704   6   4   1.1813  12.4748  12.6431   0.0000   0.0000   0.0000   0.00    0.0   0.27
2022/07/09 01:56:19.400  -2183027.0478   4364527.5641   4093161.4634   6   4   1.1808  12.4690  12.6371   0.0000   0.0000   0.0000   0.00    0.0   0.27
2022/07/09 01:56:19.600  -2183027.0029   4364527.2349   4093161.1059   6   4   1.1803  12.4635  12.6314   0.0000   0.0000   0.0000   0.00    0.0   0.26
2022/07/09 01:56:19.800  -2183027.0583   4364527.8195   4093161.7340   6   4   1.1799  12.4583  12.6259   0.0000   0.0000   0.0000   0.00    0.0   0.26
2022/07/09 01:56:20.000  -2183026.7789   4364524.9415   4093158.8119   6   4   1.1795  12.4533  12.6208   0.0000   0.0000   0.0000   0.00    0.0   0.26
2022/07/09 01:56:20.200  -2183027.3028   4364530.4607   4093164.4363   6   4   1.1791  12.4485  12.6158   0.0000   0.0000   0.0000   0.00    0.0   0.27
2022/07/09 01:56:20.400  -2183026.6677   4364523.7537   4093157.6093   6   4   1.1787  12.4440  12.6111   0.0000   0.0000   0.0000   0.00    0.0   0.26
2022/07/09 01:56:20.600  -2183026.6866   4364523.9622   4093157.8441   6   4   1.1784  12.4397  12.6066   0.0000   0.0000   0.0000   0.00    0.0   0.27
2022/07/09 01:56:20.800  -2183027.6602   4364534.5062   4093168.5534   6   4   1.1781  12.4356  12.6023   0.0000   0.0000   0.0000   0.00    0.0   0.28
2022/07/09 01:56:21.000  -2183027.4800   4364532.5269   4093166.5453   6   4   1.1778  12.4317  12.5982   0.0000   0.0000   0.0000   0.00    0.0   0.29
2022/07/09 01:56:21.200  -2183027.0605   4364528.0852   4093162.0337   6   4   1.1776  12.4280  12.5944   0.0000   0.0000   0.0000   0.00    0.0   0.29
2022/07/09 01:56:21.400  -2183026.6829   4364524.0756   4093157.9931   6   4   1.1774  12.4245  12.5907   0.0000   0.0000   0.0000   0.00    0.0   0.28
2022/07/09 01:56:21.600  -2183026.8404   4364525.9510   4093159.9022   6   4   1.1772  12.4213  12.5872   0.0000   0.0000   0.0000   0.00    0.0   0.29
2022/07/09 01:56:21.800  -2183026.1250   4364518.1183   4093151.9605   6   4   1.1770  12.4182  12.5840   0.0000   0.0000   0.0000   0.00    0.0   0.28
2022/07/09 01:56:22.000  -2183026.0429   4364517.4109   4093151.2581   6   4   1.1768  12.4153  12.5809   0.0000   0.0000   0.0000   0.00    0.0   0.28
2022/07/09 01:56:22.200  -2183026.6540   4364523.9939   4093157.9321   6   4   1.1767  12.4125  12.5780   0.0000   0.0000   0.0000   0.00    0.0   0.29
2022/07/09 01:56:22.400  -2183026.8905   4364526.5478   4093160.5561   6   4   1.1766  12.4100  12.5752   0.0000   0.0000   0.0000   0.00    0.0   0.30
2022/07/09 01:56:22.600  -2183026.2821   4364520.0708   4093153.9961   6   4   1.1765  12.4076  12.5727   0.0000   0.0000   0.0000   0.00    0.0   0.31
2022/07/09 01:56:22.800  -2183026.9985   4364527.7853   4093161.8175   6   4   1.1764  12.4054  12.5703   0.0000   0.0000   0.0000   0.00    0.0   0.30
2022/07/09 01:56:23.000  -2183026.9690   4364527.6327   4093161.6534   6   4   1.1764  12.4033  12.5681   0.0000   0.0000   0.0000   0.00    0.0   0.29
2022/07/09 01:56:23.200  -2183027.3903   4364531.9792   4093166.0800   6   4   1.1763  12.4014  12.5660   0.0000   0.0000   0.0000   0.00    0.0   0.29
2022/07/09 01:56:23.400  -2183027.5195   4364533.5653   4093167.6850   6   4   1.1763  12.3996  12.5641   0.0000   0.0000   0.0000   0.00    0.0   0.29
2022/07/09 01:56:23.600  -2183027.4412   4364532.6531   4093166.7711   6   4   1.1763  12.3980  12.5623   0.0000   0.0000   0.0000   0.00    0.0   0.29
2022/07/09 01:56:23.800  -2183026.8532   4364526.5090   4093160.5592   6   4   1.1763  12.3966  12.5607   0.0000   0.0000   0.0000   0.00    0.0   0.30
2022/07/09 01:56:24.000  -2183026.3309   4364520.8086   4093154.7741   6   4   1.1764  12.3952  12.5592   0.0000   0.0000   0.0000   0.00    0.0   0.28
2022/07/09 01:56:24.200  -2183027.2400   4364530.5335   4093164.6595   6   4   1.1764  12.3940  12.5579   0.0000   0.0000   0.0000   0.00    0.0   0.30
2022/07/09 01:56:24.400  -2183027.4341   4364532.6298   4093166.8026   6   4   1.1765  12.3930  12.5567   0.0000   0.0000   0.0000   0.00    0.0   0.30
2022/07/09 01:56:24.600  -2183026.8526   4364526.4330   4093160.5226   6   4   1.1766  12.3921  12.5556   0.0000   0.0000   0.0000   0.00    0.0   0.30
2022/07/09 01:56:24.800  -2183026.2121   4364519.6756   4093153.6859   6   4   1.1767  12.3913  12.5546   0.0000   0.0000   0.0000   0.00    0.0   0.29
2022/07/09 01:56:25.000  -2183026.1503   4364519.0136   4093153.0207   6   4   1.1768  12.3906  12.5538   0.0000   0.0000   0.0000   0.00    0.0   0.30
2022/07/09 01:56:25.200  -2183026.1984   4364519.5028   4093153.5245   6   4   1.1770  12.3901  12.5531   0.0000   0.0000   0.0000   0.00    0.0   0.30
2022/07/09 01:56:25.400  -2183027.6960   4364535.6911   4093169.9281   6   4   1.1771  12.3896  12.5526   0.0000   0.0000   0.0000   0.00    0.0   0.31
2022/07/09 01:56:25.600  -2183027.1536   4364529.8187   4093164.0016   6   4   1.1773  12.3893  12.5521   0.0000   0.0000   0.0000   0.00    0.0   0.32
2022/07/09 01:56:25.800  -2183026.3848   4364521.4284   4093155.5246   6   4   1.1775  12.3891  12.5518   0.0000   0.0000   0.0000   0.00    0.0   0.32
2022/07/09 01:56:26.000  -2183027.1233   4364529.4475   4093163.6477   6   4   1.1776  12.3891  12.5516   0.0000   0.0000   0.0000   0.00    0.0   0.32
2022/07/09 01:56:26.200  -2183026.6180   4364524.1342   4093158.2693   6   4   1.1779  12.3891  12.5515   0.0000   0.0000   0.0000   0.00    0.0   0.33
2022/07/09 01:56:26.400  -2183026.9218   4364527.1944   4093161.3818   6   4   1.1781  12.3892  12.5514   0.0000   0.0000   0.0000   0.00    0.0   0.33
2022/07/09 01:56:26.600  -2183027.0052   4364528.2442   4093162.4418   6   4   1.1783  12.3895  12.5515   0.0000   0.0000   0.0000   0.00    0.0   0.33
2022/07/09 01:56:26.800  -2183027.1165   4364529.4310   4093163.6838   6   4   1.1786  12.3898  12.5517   0.0000   0.0000   0.0000   0.00    0.0   0.33
2022/07/09 01:56:27.000  -2183026.9358   4364527.4533   4093161.6842   6   4   1.1788  12.3902  12.5521   0.0000   0.0000   0.0000   0.00    0.0   0.33
2022/07/09 01:56:27.200  -2183026.4715   4364522.5043   4093156.6717   6   4   1.1791  12.3908  12.5525   0.0000   0.0000   0.0000   0.00    0.0   0.33
2022/07/09 01:56:27.400  -2183026.5019   4364522.7628   4093156.9534   6   4   1.1794  12.3914  12.5530   0.0000   0.0000   0.0000   0.00    0.0   0.33
2022/07/09 01:56:27.600  -2183026.4777   4364522.6390   4093156.8244   6   4   1.1797  12.3922  12.5536   0.0000   0.0000   0.0000   0.00    0.0   0.33
2022/07/09 01:56:27.800  -2183026.5461   4364523.3427   4093157.5510   6   4   1.1800  12.3930  12.5543   0.0000   0.0000   0.0000   0.00    0.0   0.32
2022/07/09 01:56:28.000  -2183026.7797   4364525.8271   4093160.0685   6   4   1.1803  12.3939  12.5550   0.0000   0.0000   0.0000   0.00    0.0   0.32
2022/07/09 01:56:28.200  -2183027.2756   4364531.1362   4093165.4600   6   4   1.1806  12.3949  12.5559   0.0000   0.0000   0.0000   0.00    0.0   0.34
2022/07/09 01:56:28.400  -2183026.4656   4364522.3569   4093156.5978   6   4   1.1809  12.3960  12.5569   0.0000   0.0000   0.0000   0.00    0.0   0.34
2022/07/09 01:56:28.600  -2183026.9563   4364527.7846   4093162.1031   6   4   1.1813  12.3971  12.5579   0.0000   0.0000   0.0000   0.00    0.0   0.35
2022/07/09 01:56:28.800  -2183026.6218   4364524.1106   4093158.3619   6   4   1.1817  12.3984  12.5590   0.0000   0.0000   0.0000   0.00    0.0   0.36
2022/07/09 01:56:29.000  -2183026.0963   4364518.5165   4093152.7353   6   4   1.1820  12.3997  12.5603   0.0000   0.0000   0.0000   0.00    0.0   0.36
2022/07/09 01:56:29.200  -2183026.3001   4364520.5890   4093154.8555   6   4   1.1824  12.4012  12.5615   0.0000   0.0000   0.0000   0.00    0.0   0.36
2022/07/09 01:56:29.400  -2183027.1237   4364529.5246   4093163.8928   6   4   1.1828  12.4027  12.5629   0.0000   0.0000   0.0000   0.00    0.0   0.37
2022/07/09 01:56:29.600  -2183027.0975   4364529.1888   4093163.5657   6   4   1.1832  12.4042  12.5644   0.0000   0.0000   0.0000   0.00    0.0   0.37
2022/07/09 01:56:29.800  -2183027.2544   4364530.7206   4093165.1295   6   4   1.1836  12.4059  12.5659   0.0000   0.0000   0.0000   0.00    0.0   0.38
2022/07/09 01:56:30.000  -2183027.3914   4364532.2013   4093166.6541   6   4   1.1840  12.4076  12.5675   0.0000   0.0000   0.0000   0.00    0.0   0.39
2022/07/09 01:56:30.200  -2183027.0252   4364528.3358   4093162.7460   6   4   1.1844  12.4094  12.5692   0.0000   0.0000   0.0000   0.00    0.0   0.39
2022/07/09 01:56:30.400  -2183026.2461   4364520.1269   4093154.4584   6   4   1.1849  12.4113  12.5709   0.0000   0.0000   0.0000   0.00    0.0   0.39
2022/07/09 01:56:30.600  -2183026.3463   4364521.1504   4093155.4830   6   4   1.1853  12.4132  12.5728   0.0000   0.0000   0.0000   0.00    0.0   0.39
2022/07/09 01:56:30.800  -2183027.0954   4364529.0937   4093163.5253   6   4   1.1858  12.4152  12.5747   0.0000   0.0000   0.0000   0.00    0.0   0.40
2022/07/09 01:56:31.000  -2183026.7080   4364524.9900   4093159.3869   6   4   1.1862  12.4173  12.5766   0.0000   0.0000   0.0000   0.00    0.0   0.39
2022/07/09 01:56:31.200  -2183026.9458   4364527.3791   4093161.8310   6   4   1.1867  12.4194  12.5786   0.0000   0.0000   0.0000   0.00    0.0   0.40
2022/07/09 01:56:31.400  -2183026.6851   4364524.5828   4093159.0086   6   4   1.1872  12.4217  12.5807   0.0000   0.0000   0.0000   0.00    0.0   0.40
2022/07/09 01:56:31.600  -2183026.9197   4364527.1055   4093161.5567   6   4   1.1877  12.4239  12.5829   0.0000   0.0000   0.0000   0.00    0.0   0.41
2022/07/09 01:56:31.800  -2183027.1772   4364529.8601   4093164.3644   6   4   1.1882  12.4263  12.5851   0.0000   0.0000   0.0000   0.00    0.0   0.42
2022/07/09 01:56:32.000  -2183026.6415   4364524.1266   4093158.5584   6   4   1.1887  12.4287  12.5874   0.0000   0.0000   0.0000   0.00    0.0   0.42
2022/07/09 01:56:32.200  -2183026.8345   4364526.3323   4093160.8102   6   4   1.1892  12.4311  12.5898   0.0000   0.0000   0.0000   0.00    0.0   0.42
2022/07/09 01:56:32.400  -2183026.4510   4364522.2762   4093156.7278   6   4   1.1897  12.4337  12.5922   0.0000   0.0000   0.0000   0.00    0.0   0.42
2022/07/09 01:56:32.600  -2183026.9411   4364527.2901   4093161.8227   6   4   1.1902  12.4363  12.5947   0.0000   0.0000   0.0000   0.00    0.0   0.43
2022/07/09 01:56:32.800  -2183026.8801   4364526.5263   4093161.0595   6   4   1.1908  12.4389  12.5972   0.0000   0.0000   0.0000   0.00    0.0   0.44
2022/07/09 01:56:33.000  -2183027.2886   4364530.7984   4093165.3998   6   4   1.1913  12.4416  12.5998   0.0000   0.0000   0.0000   0.00    0.0   0.45
2022/07/09 01:56:33.200  -2183027.1360   4364529.3833   4093163.9687   6   4   1.1919  12.4444  12.6024   0.0000   0.0000   0.0000   0.00    0.0   0.44
2022/07/09 01:56:33.400  -2183026.9659   4364527.4171   4093161.9901   6   4   1.1924  12.4472  12.6052   0.0000   0.0000   0.0000   0.00    0.0   0.45
2022/07/09 01:56:33.600  -2183026.9396   4364527.1705   4093161.7479   6   4   1.1930  12.4500  12.6079   0.0000   0.0000   0.0000   0.00    0.0   0.45
2022/07/09 01:56:33.800  -2183027.2103   4364529.9479   4093164.5705   6   4   1.1936  12.4530  12.6107   0.0000   0.0000   0.0000   0.00    0.0   0.46
2022/07/09 01:56:34.000  -2183027.6265   4364534.3878   4093169.0835   6   4   1.1941  12.4560  12.6136   0.0000   0.0000   0.0000   0.00    0.0   0.46
2022/07/09 01:56:34.200  -2183026.9304   4364527.0555   4093161.6425   6   4   1.1947  12.4590  12.6165   0.0000   0.0000   0.0000   0.00    0.0   0.45
2022/07/09 01:56:34.400  -2183027.2907   4364530.8122   4093165.4789   6   4   1.1953  12.4621  12.6195   0.0000   0.0000   0.0000   0.00    0.0   0.46
2022/07/09 01:56:34.600  -2183027.7244   4364535.3279   4093170.0625   6   4   1.1959  12.4652  12.6225   0.0000   0.0000   0.0000   0.00    0.0   0.48
2022/07/09 01:56:34.800  -2183027.6684   4364534.6811   4093169.4251   6   4   1.1965  12.4684  12.6256   0.0000   0.0000   0.0000   0.00    0.0   0.48
2022/07/09 01:56:35.000  -2183027.8499   4364536.5712   4093171.3540   6   4   1.1971  12.4716  12.6287   0.0000   0.0000   0.0000   0.00    0.0   0.48
2022/07/09 01:56:35.200  -2183027.3046   4364530.7016   4093165.4138   6   4   1.1977  12.4749  12.6319   0.0000   0.0000   0.0000   0.00    0.0   0.49
2022/07/09 01:56:35.400  -2183027.2491   4364530.1717   4093164.9016   6   4   1.1983  12.4782  12.6352   0.0000   0.0000   0.0000   0.00    0.0   0.48
2022/07/09 01:56:35.600  -2183027.3514   4364531.1657   4093165.9059   6   4   1.1990  12.4816  12.6384   0.0000   0.0000   0.0000   0.00    0.0   0.48
2022/07/09 01:56:35.800  -2183027.1442   4364528.9471   4093163.6696   6   4   1.1996  12.4850  12.6418   0.0000   0.0000   0.0000   0.00    0.0   0.48
2022/07/09 01:56:36.000  -2183027.6382   4364534.1624   4093168.9642   6   4   1.2002  12.4885  12.6451   0.0000   0.0000   0.0000   0.00    0.0   0.49
2022/07/09 01:56:36.200  -2183027.5612   4364533.2050   4093168.0076   6   4   1.2009  12.4920  12.6485   0.0000   0.0000   0.0000   0.00    0.0   0.48
2022/07/09 01:56:36.400  -2183027.5050   4364532.5733   4093167.3631   6   4   1.2015  12.4956  12.6520   0.0000   0.0000   0.0000   0.00    0.0   0.48
2022/07/09 01:56:36.600  -2183027.5691   4364533.2069   4093168.0346   6   4   1.2022  12.4992  12.6555   0.0000   0.0000   0.0000   0.00    0.0   0.49
2022/07/09 01:56:36.800  -2183028.1074   4364538.9557   4093173.8615   6   4   1.2029  12.5029  12.6591   0.0000   0.0000   0.0000   0.00    0.0   0.50
2022/07/09 01:56:37.000  -2183027.3778   4364531.0800   4093165.8947   6   4   1.2035  12.5066  12.6627   0.0000   0.0000   0.0000   0.00    0.0   0.50
2022/07/09 01:56:37.200  -2183027.6548   4364534.1536   4093169.0320   6   4   1.2042  12.5103  12.6663   0.0000   0.0000   0.0000   0.00    0.0   0.51
2022/07/09 01:56:37.400  -2183027.0347   4364527.2893   4093162.1027   6   4   1.2049  12.5141  12.6700   0.0000   0.0000   0.0000   0.00    0.0   0.51
2022/07/09 01:56:37.600  -2183027.4935   4364532.1607   4093167.0309   6   4   1.2056  12.5179  12.6737   0.0000   0.0000   0.0000   0.00    0.0   0.52
2022/07/09 01:56:37.800  -2183027.8104   4364535.4591   4093170.3929   6   4   1.2063  12.5218  12.6775   0.0000   0.0000   0.0000   0.00    0.0   0.53
2022/07/09 01:56:38.000  -2183027.4652   4364531.6135   4093166.5114   6   4   1.2070  12.5257  12.6813   0.0000   0.0000   0.0000   0.00    0.0   0.53
2022/07/09 01:56:38.200  -2183028.0614   4364537.9435   4093172.9382   6   4   1.2077  12.5296  12.6852   0.0000   0.0000   0.0000   0.00    0.0   0.53
2022/07/09 01:56:38.400  -2183027.0518   4364527.2363   4093162.1254   6   4   1.2084  12.5336  12.6890   0.0000   0.0000   0.0000   0.00    0.0   0.52
2022/07/09 01:56:38.600  -2183027.7121   4364534.0640   4093169.0566   6   4   1.2091  12.5377  12.6930   0.0000   0.0000   0.0000   0.00    0.0   0.53
2022/07/09 01:56:38.800  -2183027.8044   4364535.0716   4093170.0688   6   4   1.2098  12.5417  12.6969   0.0000   0.0000   0.0000   0.00    0.0   0.53
2022/07/09 01:56:39.000  -2183027.9782   4364536.8697   4093171.8792   6   4   1.2105  12.5458  12.7010   0.0000   0.0000   0.0000   0.00    0.0   0.54
2022/07/09 01:56:39.200  -2183028.1703   4364538.9384   4093173.9830   6   4   1.2112  12.5500  12.7050   0.0000   0.0000   0.0000   0.00    0.0   0.55
2022/07/09 01:56:39.400  -2183027.1366   4364528.0020   4093162.9269   6   4   1.2120  12.5542  12.7091   0.0000   0.0000   0.0000   0.00    0.0   0.54
2022/07/09 01:56:39.600  -2183027.1138   4364527.6002   4093162.5451   6   4   1.2127  12.5584  12.7132   0.0000   0.0000   0.0000   0.00    0.0   0.54
2022/07/09 01:56:39.800  -2183027.1610   4364528.0467   4093163.0266   6   4   1.2134  12.5626  12.7174   0.0000   0.0000   0.0000   0.00    0.0   0.54
2022/07/09 01:56:40.000  -2183027.1671   4364527.9856   4093162.9855   6   4   1.2142  12.5669  12.7216   0.0000   0.0000   0.0000   0.00    0.0   0.55
2022/07/09 01:56:40.200  -2183027.1124   4364527.5562   4093162.5273   6   4   1.2149  12.5713  12.7258   0.0000   0.0000   0.0000   0.00    0.0   0.55
2022/07/09 01:56:40.400  -2183027.4710   4364531.1007   4093166.1464   6   4   1.2157  12.5756  12.7301   0.0000   0.0000   0.0000   0.00    0.0   0.56
2022/07/09 01:56:40.600  -2183027.8305   4364534.8420   4093169.9423   6   4   1.2165  12.5800  12.7344   0.0000   0.0000   0.0000   0.00    0.0   0.55
2022/07/09 01:56:40.800  -2183027.2128   4364528.2113   4093163.2490   6   4   1.2172  12.5844  12.7387   0.0000   0.0000   0.0000   0.00    0.0   0.55
2022/07/09 01:56:41.000  -2183027.3948   4364530.2493   4093165.3090   6   4   1.2180  12.5889  12.7431   0.0000   0.0000   0.0000   0.00    0.0   0.55
2022/07/09 01:56:41.200  -2183027.6226   4364532.4053   4093167.4752   6   4   1.2188  12.5934  12.7475   0.0000   0.0000   0.0000   0.00    0.0   0.56
2022/07/09 01:56:41.400  -2183027.9108   4364535.3321   4093170.4732   6   4   1.2195  12.5980  12.7519   0.0000   0.0000   0.0000   0.00    0.0   0.57
2022/07/09 01:56:41.600  -2183027.9354   4364535.5138   4093170.6824   6   4   1.2203  12.6025  12.7564   0.0000   0.0000   0.0000   0.00    0.0   0.56
2022/07/09 01:56:41.800  -2183028.7822   4364544.2484   4093179.5365   6   4   1.2211  12.6071  12.7609   0.0000   0.0000   0.0000   0.00    0.0   0.58
2022/07/09 01:56:42.000  -2183029.2411   4364548.9563   4093184.3028   6   4   1.2219  12.6118  12.7655   0.0000   0.0000   0.0000   0.00    0.0   0.60
2022/07/09 01:56:42.200  -2183028.4066   4364540.1706   4093175.4329   6   4   1.2227  12.6164  12.7700   0.0000   0.0000   0.0000   0.00    0.0   0.58
2022/07/09 01:56:42.400  -2183028.0933   4364536.9578   4093172.2004   6   4   1.2235  12.6211  12.7747   0.0000   0.0000   0.0000   0.00    0.0   0.58
2022/07/09 01:56:42.600  -2183028.5275   4364541.4356   4093176.7267   6   4   1.2243  12.6259  12.7793   0.0000   0.0000   0.0000   0.00    0.0   0.59
2022/07/09 01:56:42.800  -2183028.6296   4364542.4928   4093177.8009   6   4   1.2251  12.6306  12.7840   0.0000   0.0000   0.0000   0.00    0.0   0.58
2022/07/09 01:56:43.000  -2183028.1830   4364537.7626   4093173.0221   6   4   1.2259  12.6354  12.7887   0.0000   0.0000   0.0000   0.00    0.0   0.58
2022/07/09 01:56:43.200  -2183028.4571   4364540.5529   4093175.8614   6   4   1.2267  12.6402  12.7934   0.0000   0.0000   0.0000   0.00    0.0   0.59
2022/07/09 01:56:43.400  -2183027.5250   4364530.9132   4093166.1394   6   4   1.2275  12.6451  12.7982   0.0000   0.0000   0.0000   0.00    0.0   0.58
2022/07/09 01:56:43.600  -2183026.9602   4364524.9064   4093160.0747   6   4   1.2284  12.6500  12.8030   0.0000   0.0000   0.0000   0.00    0.0   0.58
2022/07/09 01:56:43.800  -2183027.0055   4364525.5360   4093160.7045   6   4   1.2292  12.6549  12.8078   0.0000   0.0000   0.0000   0.00    0.0   0.59
2022/07/09 01:56:44.000  -2183027.3523   4364528.8760   4093164.1085   6   4   1.2300  12.6599  12.8127   0.0000   0.0000   0.0000   0.00    0.0   0.60
2022/07/09 01:56:44.200  -2183027.1320   4364526.4857   4093161.6925   6   4   1.2309  12.6648  12.8175   0.0000   0.0000   0.0000   0.00    0.0   0.61
2022/07/09 01:56:44.400  -2183027.9120   4364534.4632   4093169.7869   6   4   1.2317  12.6698  12.8225   0.0000   0.0000   0.0000   0.00    0.0   0.61
2022/07/09 01:56:44.600  -2183027.4239   4364529.3968   4093164.6710   6   4   1.2325  12.6749  12.8274   0.0000   0.0000   0.0000   0.00    0.0   0.61
2022/07/09 01:56:44.800  -2183028.0471   4364535.8029   4093171.1661   6   4   1.2334  12.6799  12.8324   0.0000   0.0000   0.0000   0.00    0.0   0.62
2022/07/09 01:56:45.000  -2183027.7822   4364533.0231   4093168.3487   6   4   1.2342  12.6850  12.8374   0.0000   0.0000   0.0000   0.00    0.0   0.62
2022/07/09 01:56:45.200  -2183028.1156   4364536.4383   4093171.8191   6   4   1.2351  12.6902  12.8424   0.0000   0.0000   0.0000   0.00    0.0   0.63
2022/07/09 01:56:45.400  -2183027.9645   4364534.7809   4093170.1785   6   4   1.2359  12.6953  12.8475   0.0000   0.0000   0.0000   0.00    0.0   0.64
2022/07/09 01:56:45.600  -2183028.1894   4364537.1626   4093172.6029   6   4   1.2368  12.7005  12.8526   0.0000   0.0000   0.0000   0.00    0.0   0.63
2022/07/09 01:56:45.800  -2183027.8464   4364533.4406   4093168.8363   6   4   1.2377  12.7057  12.8577   0.0000   0.0000   0.0000   0.00    0.0   0.63
2022/07/09 01:56:46.000  -2183028.3669   4364538.8054   4093174.2648   6   4   1.2385  12.7109  12.8628   0.0000   0.0000   0.0000   0.00    0.0   0.65
2022/07/09 01:56:46.200  -2183027.6575   4364531.3778   4093166.7658   6   4   1.2394  12.7162  12.8680   0.0000   0.0000   0.0000   0.00    0.0   0.65
2022/07/09 01:56:46.400  -2183027.7407   4364532.1357   4093167.5389   6   4   1.2403  12.7215  12.8732   0.0000   0.0000   0.0000   0.00    0.0   0.67
2022/07/09 01:56:46.600  -2183027.0217   4364524.5806   4093159.9316   6   4   1.2412  12.7268  12.8784   0.0000   0.0000   0.0000   0.00    0.0   0.66
2022/07/09 01:56:46.800  -2183028.3116   4364537.8238   4093173.3362   6   4   1.2420  12.7321  12.8837   0.0000   0.0000   0.0000   0.00    0.0   0.68
2022/07/09 01:56:47.000  -2183028.4092   4364538.8754   4093174.4066   6   4   1.2429  12.7375  12.8890   0.0000   0.0000   0.0000   0.00    0.0   0.69
2022/07/09 01:56:47.200  -2183028.3883   4364538.5575   4093174.0981   6   4   1.2438  12.7429  12.8943   0.0000   0.0000   0.0000   0.00    0.0   0.69
2022/07/09 01:56:47.400  -2183028.0235   4364534.7189   4093170.2414   6   4   1.2447  12.7483  12.8996   0.0000   0.0000   0.0000   0.00    0.0   0.69
2022/07/09 01:56:47.600  -2183027.9871   4364534.4943   4093170.0239   6   4   1.2456  12.7538  12.9050   0.0000   0.0000   0.0000   0.00    0.0   0.69
2022/07/09 01:56:47.800  -2183028.0846   4364535.2961   4093170.8512   6   4   1.2465  12.7592  12.9104   0.0000   0.0000   0.0000   0.00    0.0   0.70
2022/07/09 01:56:48.000  -2183028.4858   4364539.3761   4093174.9740   6   4   1.2474  12.7647  12.9158   0.0000   0.0000   0.0000   0.00    0.0   0.71
2022/07/09 01:56:48.200  -2183028.4344   4364538.7668   4093174.3958   6   4   1.2483  12.7703  12.9212   0.0000   0.0000   0.0000   0.00    0.0   0.70
2022/07/09 01:56:48.400  -2183027.6702   4364530.8767   4093166.4070   6   4   1.2492  12.7758  12.9267   0.0000   0.0000   0.0000   0.00    0.0   0.69
2022/07/09 01:56:48.600  -2183028.0322   4364534.4606   4093170.0654   6   4   1.2502  12.7814  12.9322   0.0000   0.0000   0.0000   0.00    0.0   0.71
2022/07/09 01:56:48.800  -2183027.5918   4364529.9396   4093165.5007   6   4   1.2511  12.7870  12.9377   0.0000   0.0000   0.0000   0.00    0.0   0.71
2022/07/09 01:56:49.000  -2183028.1995   4364535.7152   4093171.3799   6   4   1.2520  12.7926  12.9432   0.0000   0.0000   0.0000   0.00    0.0   0.71
2022/07/09 01:56:49.200  -2183029.4026   4364548.1329   4093183.9278   6   4   1.2529  12.7982  12.9488   0.0000   0.0000   0.0000   0.00    0.0   0.72
2022/07/09 01:56:49.400  -2183028.6166   4364540.2897   4093176.0293   6   4   1.2538  12.8039  12.9544   0.0000   0.0000   0.0000   0.00    0.0   0.72
2022/07/09 01:56:49.600  -2183028.8602   4364542.6570   4093178.4204   6   4   1.2548  12.8096  12.9600   0.0000   0.0000   0.0000   0.00    0.0   0.73
2022/07/09 01:56:49.800  -2183028.2759   4364536.4923   4093172.1958   6   4   1.2557  12.8153  12.9656   0.0000   0.0000   0.0000   0.00    0.0   0.73
2022/07/09 01:56:50.000  -2183028.6059   4364539.7955   4093175.5427   6   4   1.2566  12.8211  12.9713   0.0000   0.0000   0.0000   0.00    0.0   0.74
2022/07/09 01:56:50.200  -2183028.5661   4364539.2372   4093175.0324   6   4   1.2576  12.8268  12.9769   0.0000   0.0000   0.0000   0.00    0.0   0.74
2022/07/09 01:56:50.400  -2183028.2566   4364535.9684   4093171.7294   6   4   1.2585  12.8326  12.9826   0.0000   0.0000   0.0000   0.00    0.0   0.75
2022/07/09 01:56:50.600  -2183028.5490   4364538.9989   4093174.8164   6   4   1.2595  12.8384  12.9884   0.0000   0.0000   0.0000   0.00    0.0   0.76
2022/07/09 01:56:50.800  -2183028.9976   4364543.6663   4093179.5256   6   4   1.2604  12.8443  12.9941   0.0000   0.0000   0.0000   0.00    0.0   0.77
2022/07/09 01:56:51.000  -2183028.9108   4364542.5120   4093178.4025   6   4   1.2614  12.8501  12.9999   0.0000   0.0000   0.0000   0.00    0.0   0.76
2022/07/09 01:56:51.200  -2183029.1012   4364544.5672   4093180.5014   6   4   1.2623  12.8560  13.0057   0.0000   0.0000   0.0000   0.00    0.0   0.77
2022/07/09 01:56:51.400  -2183028.6678   4364540.0379   4093175.9186   6   4   1.2633  12.8619  13.0115   0.0000   0.0000   0.0000   0.00    0.0   0.78
2022/07/09 01:56:51.600  -2183028.8062   4364541.3743   4093177.3078   6   4   1.2643  12.8679  13.0174   0.0000   0.0000   0.0000   0.00    0.0   0.78
2022/07/09 01:56:51.800  -2183028.1473   4364534.5009   4093170.3490   6   4   1.2652  12.8738  13.0232   0.0000   0.0000   0.0000   0.00    0.0   0.79
2022/07/09 01:56:52.000  -2183028.1583   4364534.5070   4093170.3820   6   4   1.2662  12.8798  13.0291   0.0000   0.0000   0.0000   0.00    0.0   0.79
2022/07/09 01:56:52.200  -2183028.9567   4364542.6361   4093178.6187   6   4   1.2672  12.8858  13.0351   0.0000   0.0000   0.0000   0.00    0.0   0.80
2022/07/09 01:56:52.400  -2183027.9461   4364532.2146   4093168.0929   6   4   1.2681  12.8918  13.0410   0.0000   0.0000   0.0000   0.00    0.0   0.79
2022/07/09 01:56:52.600  -2183028.3525   4364536.4175   4093172.3630   6   4   1.2691  12.8979  13.0470   0.0000   0.0000   0.0000   0.00    0.0   0.79
2022/07/09 01:56:52.800  -2183029.0176   4364543.1500   4093179.1943   6   4   1.2701  12.9039  13.0529   0.0000   0.0000   0.0000   0.00    0.0   0.80
2022/07/09 01:56:53.000  -2183028.8952   4364541.7510   4093177.7654   6   4   1.2711  12.9100  13.0589   0.0000   0.0000   0.0000   0.00    0.0   0.81
2022/07/09 01:56:53.200  -2183028.3944   4364536.7409   4093172.7386   6   4   1.2721  12.9161  13.0650   0.0000   0.0000   0.0000   0.00    0.0   0.80
2022/07/09 01:56:53.400  -2183028.8756   4364541.4421   4093177.4980   6   4   1.2730  12.9222  13.0710   0.0000   0.0000   0.0000   0.00    0.0   0.81
2022/07/09 01:56:53.600  -2183029.2387   4364545.0866   4093181.2127   6   4   1.2740  12.9284  13.0771   0.0000   0.0000   0.0000   0.00    0.0   0.82
2022/07/09 01:56:53.800  -2183029.2111   4364544.6801   4093180.8166   6   4   1.2750  12.9346  13.0832   0.0000   0.0000   0.0000   0.00    0.0   0.82
2022/07/09 01:56:54.000  -2183029.0893   4364543.2889   4093179.4232   6   4   1.2760  12.9408  13.0893   0.0000   0.0000   0.0000   0.00    0.0   0.82
2022/07/09 01:56:54.200  -2183028.3338   4364535.7308   4093171.7865   6   4   1.2770  12.9470  13.0954   0.0000   0.0000   0.0000   0.00    0.0   0.82
2022/07/09 01:56:54.400  -2183029.0025   4364542.5147   4093178.6733   6   4   1.2780  12.9532  13.1016   0.0000   0.0000   0.0000   0.00    0.0   0.82
2022/07/09 01:56:54.600  -2183029.3921   4364546.1840   4093182.3975   6   4   1.2790  12.9595  13.1077   0.0000   0.0000   0.0000   0.00    0.0   0.84
2022/07/09 01:56:54.800  -2183028.7792   4364539.9092   4093176.0672   6   4   1.2801  12.9658  13.1139   0.0000   0.0000   0.0000   0.00    0.0   0.83
2022/07/09 01:56:55.000  -2183028.8704   4364540.7917   4093176.9739   6   4   1.2811  12.9721  13.1202   0.0000   0.0000   0.0000   0.00    0.0   0.83
2022/07/09 01:56:55.200  -2183028.0571   4364532.4876   4093168.5960   6   4   1.2821  12.9784  13.1264   0.0000   0.0000   0.0000   0.00    0.0   0.83
2022/07/09 01:56:55.400  -2183029.3083   4364545.0960   4093181.3610   6   4   1.2831  12.9847  13.1327   0.0000   0.0000   0.0000   0.00    0.0   0.85
2022/07/09 01:56:55.600  -2183029.2609   4364544.5962   4093180.8694   6   4   1.2841  12.9911  13.1389   0.0000   0.0000   0.0000   0.00    0.0   0.84
2022/07/09 01:56:55.800  -2183029.1888   4364543.8562   4093180.1278   6   4   1.2851  12.9975  13.1452   0.0000   0.0000   0.0000   0.00    0.0   0.84
2022/07/09 01:56:56.000  -2183029.0078   4364541.9091   4093178.1843   6   4   1.2862  13.0039  13.1516   0.0000   0.0000   0.0000   0.00    0.0   0.84
2022/07/09 01:56:56.200  -2183029.1086   4364542.7518   4093179.0601   6   4   1.2872  13.0103  13.1579   0.0000   0.0000   0.0000   0.00    0.0   0.84
2022/07/09 01:56:56.400  -2183029.1647   4364543.2485   4093179.5854   6   4   1.2882  13.0167  13.1643   0.0000   0.0000   0.0000   0.00    0.0   0.84
2022/07/09 01:56:56.600  -2183028.8351   4364539.9191   4093176.2191   6   4   1.2893  13.0232  13.1707   0.0000   0.0000   0.0000   0.00    0.0   0.84
2022/07/09 01:56:56.800  -2183029.5152   4364546.8121   4093183.2005   6   4   1.2903  13.0297  13.1771   0.0000   0.0000   0.0000   0.00    0.0   0.86
2022/07/09 01:56:57.000  -2183028.8944   4364540.4761   4093176.7981   6   4   1.2913  13.0362  13.1835   0.0000   0.0000   0.0000   0.00    0.0   0.84
2022/07/09 01:56:57.200  -2183028.3236   4364534.4206   4093170.7326   6   4   1.2924  13.0427  13.1899   0.0000   0.0000   0.0000   0.00    0.0   0.83
2022/07/09 01:56:57.400  -2183028.7221   4364538.5418   4093174.9178   6   4   1.2934  13.0493  13.1964   0.0000   0.0000   0.0000   0.00    0.0   0.84
2022/07/09 01:56:57.600  -2183028.0602   4364531.8194   4093168.1138   6   4   1.2945  13.0558  13.2029   0.0000   0.0000   0.0000   0.00    0.0   0.84
2022/07/09 01:56:57.800  -2183028.3890   4364535.0926   4093171.4335   6   4   1.2955  13.0624  13.2094   0.0000   0.0000   0.0000   0.00    0.0   0.85
2022/07/09 01:56:58.000  -2183028.6367   4364537.5404   4093173.9279   6   4   1.2966  13.0690  13.2159   0.0000   0.0000   0.0000   0.00    0.0   0.85
2022/07/09 01:56:58.200  -2183028.3730   4364534.8778   4093171.2621   6   4   1.2976  13.0757  13.2224   0.0000   0.0000   0.0000   0.00    0.0   0.86
2022/07/09 01:56:58.400  -2183028.7233   4364538.2165   4093174.6689   6   4   1.2987  13.0823  13.2290   0.0000   0.0000   0.0000   0.00    0.0   0.87
2022/07/09 01:56:58.600  -2183028.6190   4364537.2092   4093173.6517   6   4   1.2998  13.0890  13.2356   0.0000   0.0000   0.0000   0.00    0.0   0.88
2022/07/09 01:56:58.800  -2183028.2972   4364533.7681   4093170.2056   6   4   1.3008  13.0957  13.2422   0.0000   0.0000   0.0000   0.00    0.0   0.89
2022/07/09 01:56:59.000  -2183029.1035   4364541.9284   4093178.4502   6   4   1.3019  13.1024  13.2488   0.0000   0.0000   0.0000   0.00    0.0   0.89
2022/07/09 01:56:59.200  -2183028.9366   4364540.1158   4093176.6552   6   4   1.3030  13.1091  13.2555   0.0000   0.0000   0.0000   0.00    0.0   0.90
2022/07/09 01:56:59.400  -2183029.0385   4364541.0169   4093177.5768   6   4   1.3040  13.1158  13.2621   0.0000   0.0000   0.0000   0.00    0.0   0.90
2022/07/09 01:56:59.600  -2183029.3995   4364544.6640   4093181.2703   6   4   1.3051  13.1226  13.2688   0.0000   0.0000   0.0000   0.00    0.0   0.91
2022/07/09 01:56:59.800  -2183028.9394   4364539.9563   4093176.5465   6   4   1.3062  13.1294  13.2755   0.0000   0.0000   0.0000   0.00    0.0   0.90
2022/07/09 01:57:00.000  -2183028.5443   4364535.9565   4093172.5152   6   4   1.3073  13.1362  13.2822   0.0000   0.0000   0.0000   0.00    0.0   0.90
2022/07/09 01:57:00.200  -2183029.1062   4364541.6634   4093178.2802   6   4   1.3084  13.1430  13.2890   0.0000   0.0000   0.0000   0.00    0.0   0.91
2022/07/09 01:57:00.400  -2183028.8434   4364538.9644   4093175.5670   6   4   1.3095  13.1498  13.2957   0.0000   0.0000   0.0000   0.00    0.0   0.90
2022/07/09 01:57:00.600  -2183029.4695   4364545.0512   4093181.7486   6   4   1.3105  13.1567  13.3025   0.0000   0.0000   0.0000   0.00    0.0   0.91
2022/07/09 01:57:00.800  -2183029.1410   4364541.5828   4093178.2676   6   4   1.3116  13.1636  13.3093   0.0000   0.0000   0.0000   0.00    0.0   0.92
2022/07/09 01:57:01.000  -2183029.1655   4364541.8735   4093178.5820   6   4   1.3127  13.1705  13.3161   0.0000   0.0000   0.0000   0.00    0.0   0.91
2022/07/09 01:57:01.200  -2183028.5311   4364535.2833   4093171.9289   6   4   1.3138  13.1774  13.3229   0.0000   0.0000   0.0000   0.00    0.0   0.91
2022/07/09 01:57:01.400  -2183029.3126   4364543.3128   4093180.0694   6   4   1.3149  13.1843  13.3298   0.0000   0.0000   0.0000   0.00    0.0   0.93
2022/07/09 01:57:01.600  -2183029.3283   4364543.3478   4093180.0992   6   4   1.3160  13.1913  13.3367   0.0000   0.0000   0.0000   0.00    0.0   0.93
2022/07/09 01:57:01.800  -2183029.4019   4364543.9834   4093180.7672   6   4   1.3171  13.1982  13.3436   0.0000   0.0000   0.0000   0.00    0.0   0.93
2022/07/09 01:57:02.000  -2183029.3524   4364543.3279   4093180.1453   6   4   1.3182  13.2052  13.3505   0.0000   0.0000   0.0000   0.00    0.0   0.94
2022/07/09 01:57:02.200  -2183029.9525   4364549.2699   4093186.1520   6   4   1.3193  13.2122  13.3574   0.0000   0.0000   0.0000   0.00    0.0   0.94
2022/07/09 01:57:02.400  -2183030.4602   4364554.3644   4093191.2978   6   4   1.3205  13.2193  13.3643   0.0000   0.0000   0.0000   0.00    0.0   0.94
2022/07/09 01:57:02.600  -2183030.3039   4364552.7284   4093189.6923   6   4   1.3216  13.2263  13.3713   0.0000   0.0000   0.0000   0.00    0.0   0.94
2022/07/09 01:57:02.800  -2183029.4623   4364544.3436   4093181.2240   6   4   1.3227  13.2334  13.3783   0.0000   0.0000   0.0000   0.00    0.0   0.93
2022/07/09 01:57:03.000  -2183029.0488   4364539.9215   4093176.7781   6   4   1.3238  13.2405  13.3853   0.0000   0.0000   0.0000   0.00    0.0   0.93
2022/07/09 01:57:03.200  -2183029.2438   4364541.8869   4093178.7686   6   4   1.3249  13.2476  13.3923   0.0000   0.0000   0.0000   0.00    0.0   0.95
2022/07/09 01:57:03.400  -2183029.4109   4364543.4833   4093180.4131   6   4   1.3261  13.2547  13.3993   0.0000   0.0000   0.0000   0.00    0.0   0.94
2022/07/09 01:57:03.600  -2183028.9469   4364538.8787   4093175.7539   6   4   1.3272  13.2618  13.4064   0.0000   0.0000   0.0000   0.00    0.0   0.94
2022/07/09 01:57:03.800  -2183029.9468   4364548.7871   4093185.7951   6   4   1.3283  13.2690  13.4135   0.0000   0.0000   0.0000   0.00    0.0   0.95
2022/07/09 01:57:04.000  -2183029.2766   4364541.9885   4093178.9599   6   4   1.3295  13.2761  13.4206   0.0000   0.0000   0.0000   0.00    0.0   0.95
2022/07/09 01:57:04.200  -2183029.7904   4364547.1222   4093184.1334   6   4   1.3306  13.2833  13.4277   0.0000   0.0000   0.0000   0.00    0.0   0.97
2022/07/09 01:57:04.400  -2183029.9891   4364549.0515   4093186.1074   6   4   1.3317  13.2905  13.4348   0.0000   0.0000   0.0000   0.00    0.0   0.97
2022/07/09 01:57:04.600  -2183029.7371   4364546.5046   4093183.5430   6   4   1.3329  13.2978  13.4420   0.0000   0.0000   0.0000   0.00    0.0   0.99
2022/07/09 01:57:04.800  -2183029.1091   4364540.0782   4093177.0754   6   4   1.3340  13.3050  13.4491   0.0000   0.0000   0.0000   0.00    0.0   1.00
2022/07/09 01:57:05.000  -2183029.8378   4364547.3534   4093184.4452   6   4   1.3352  13.3123  13.4563   0.0000   0.0000   0.0000   0.00    0.0   1.01
2022/07/09 01:57:05.200  -2183029.9008   4364547.9658   4093185.0839   6   4   1.3363  13.3196  13.4635   0.0000   0.0000   0.0000   0.00    0.0   1.02
2022/07/09 01:57:05.400  -2183029.3371   4364542.0975   4093179.1815   6   4   1.3375  13.3269  13.4707   0.0000   0.0000   0.0000   0.00    0.0   1.01
2022/07/09 01:57:05.600  -2183030.3784   4364552.3690   4093189.5750   6   4   1.3386  13.3342  13.4780   0.0000   0.0000   0.0000   0.00    0.0   1.03
2022/07/09 01:57:05.800  -2183031.0668   4364559.2145   4093196.4981   6   4   1.3398  13.3415  13.4852   0.0000   0.0000   0.0000   0.00    0.0   1.04
2022/07/09 01:57:06.000  -2183030.5917   4364554.4077   4093191.6474   6   4   1.3409  13.3489  13.4925   0.0000   0.0000   0.0000   0.00    0.0   1.04
2022/07/09 01:57:06.200  -2183030.3396   4364551.9561   4093189.2201   6   4   1.3421  13.3563  13.4998   0.0000   0.0000   0.0000   0.00    0.0   1.03
2022/07/09 01:57:06.400  -2183029.7808   4364546.2517   4093183.4615   6   4   1.3433  13.3636  13.5071   0.0000   0.0000   0.0000   0.00    0.0   1.04
2022/07/09 01:57:06.600  -2183030.4138   4364552.4720   4093189.7705   6   4   1.3444  13.3710  13.5144   0.0000   0.0000   0.0000   0.00    0.0   1.04
2022/07/09 01:57:06.800  -2183030.3495   4364551.7790   4093189.0714   6   4   1.3456  13.3785  13.5218   0.0000   0.0000   0.0000   0.00    0.0   1.05
2022/07/09 01:57:07.000  -2183030.2303   4364550.5866   4093187.8705   6   4   1.3468  13.3859  13.5291   0.0000   0.0000   0.0000   0.00    0.0   1.06
2022/07/09 01:57:07.200  -2183030.2294   4364550.4705   4093187.7946   6   4   1.3479  13.3934  13.5365   0.0000   0.0000   0.0000   0.00    0.0   1.07
2022/07/09 01:57:07.400  -2183029.3352   4364541.5339   4093178.7870   6   4   1.3491  13.4009  13.5439   0.0000   0.0000   0.0000   0.00    0.0   1.07
2022/07/09 01:57:07.600  -2183029.4140   4364542.1794   4093179.4499   6   4   1.3503  13.4083  13.5513   0.0000   0.0000   0.0000   0.00    0.0   1.07
2022/07/09 01:57:07.800  -2183029.5705   4364543.7160   4093181.0309   6   4   1.3515  13.4159  13.5588   0.0000   0.0000   0.0000   0.00    0.0   1.07
2022/07/09 01:57:08.000  -2183029.4232   4364542.0824   4093179.3928   6   4   1.3527  13.4234  13.5662   0.0000   0.0000   0.0000   0.00    0.0   1.08
2022/07/09 01:57:08.200  -2183030.7172   4364554.9190   4093192.3831   6   4   1.3538  13.4309  13.5737   0.0000   0.0000   0.0000   0.00    0.0   1.09
2022/07/09 01:57:08.400  -2183030.2851   4364550.6146   4093188.0665   6   4   1.3550  13.4385  13.5812   0.0000   0.0000   0.0000   0.00    0.0   1.09
2022/07/09 01:57:08.600  -2183029.5433   4364543.1174   4093180.4887   6   4   1.3562  13.4461  13.5887   0.0000   0.0000   0.0000   0.00    0.0   1.08
2022/07/09 01:57:08.800  -2183029.8427   4364546.0918   4093183.5187   6   4   1.3574  13.4537  13.5962   0.0000   0.0000   0.0000   0.00    0.0   1.09
2022/07/09 01:57:09.000  -2183029.2771   4364540.3555   4093177.7279   6   4   1.3586  13.4613  13.6038   0.0000   0.0000   0.0000   0.00    0.0   1.09
2022/07/09 01:57:09.200  -2183029.0797   4364538.2691   4093175.6377   6   4   1.3598  13.4690  13.6113   0.0000   0.0000   0.0000   0.00    0.0   1.08
2022/07/09 01:57:09.400  -2183029.4550   4364541.8647   4093179.3050   6   4   1.3610  13.4766  13.6189   0.0000   0.0000   0.0000   0.00    0.0   1.08
2022/07/09 01:57:09.600  -2183030.2010   4364549.1778   4093186.7025   6   4   1.3622  13.4843  13.6265   0.0000   0.0000   0.0000   0.00    0.0   1.11
2022/07/09 01:57:09.800  -2183030.2328   4364549.6472   4093187.1936   6   4   1.3634  13.4920  13.6341   0.0000   0.0000   0.0000   0.00    0.0   1.10
2022/07/09 01:57:10.000  -2183029.3168   4364540.2705   4093177.7592   6   4   1.3646  13.4997  13.6417   0.0000   0.0000   0.0000   0.00    0.0   1.11
2022/07/09 01:57:10.200  -2183029.0112   4364537.2576   4093174.7116   6   4   1.3658  13.5074  13.6494   0.0000   0.0000   0.0000   0.00    0.0   1.10
2022/07/09 01:57:10.400  -2183030.3639   4364550.6107   4093188.2290   6   4   1.3671  13.5152  13.6570   0.0000   0.0000   0.0000   0.00    0.0   1.13
2022/07/09 01:57:10.600  -2183030.4943   4364551.9065   4093189.5711   6   4   1.3683  13.5229  13.6647   0.0000   0.0000   0.0000   0.00    0.0   1.13
2022/07/09 01:57:10.800  -2183029.1914   4364538.9286   4093176.4562   6   4   1.3695  13.5307  13.6724   0.0000   0.0000   0.0000   0.00    0.0   1.11
2022/07/09 01:57:11.000  -2183029.7749   4364544.5075   4093182.1130   6   4   1.3707  13.5385  13.6801   0.0000   0.0000   0.0000   0.00    0.0   1.12
2022/07/09 01:57:11.200  -2183029.8672   4364545.3900   4093183.0238   6   4   1.3719  13.5463  13.6878   0.0000   0.0000   0.0000   0.00    0.0   1.12
2022/07/09 01:57:11.400  -2183030.7583   4364554.0353   4093191.7720   6   4   1.3732  13.5541  13.6956   0.0000   0.0000   0.0000   0.00    0.0   1.12
2022/07/09 01:57:11.600  -2183030.2612   4364549.1655   4093186.8658   6   4   1.3744  13.5620  13.7034   0.0000   0.0000   0.0000   0.00    0.0   1.12
2022/07/09 01:57:11.800  -2183029.4211   4364540.8621   4093178.4755   6   4   1.3756  13.5698  13.7111   0.0000   0.0000   0.0000   0.00    0.0   1.12
2022/07/09 01:57:12.000  -2183029.7513   4364543.9415   4093181.6172   6   4   1.3769  13.5777  13.7189   0.0000   0.0000   0.0000   0.00    0.0   1.13
2022/07/09 01:57:12.200  -2183029.7280   4364543.6962   4093181.3859   6   4   1.3781  13.5856  13.7268   0.0000   0.0000   0.0000   0.00    0.0   1.14
2022/07/09 01:57:12.400  -2183029.9543   4364545.6694   4093183.4320   6   4   1.3793  13.5935  13.7346   0.0000   0.0000   0.0000   0.00    0.0   1.14
2022/07/09 01:57:12.600  -2183030.2176   4364548.3961   4093186.1948   6   4   1.3806  13.6015  13.7424   0.0000   0.0000   0.0000   0.00    0.0   1.13
2022/07/09 01:57:12.800  -2183030.0537   4364546.6023   4093184.4141   6   4   1.3818  13.6094  13.7503   0.0000   0.0000   0.0000   0.00    0.0   1.12
2022/07/09 01:57:13.000  -2183031.3187   4364559.0644   4093196.9889   6   4   1.3831  13.6174  13.7582   0.0000   0.0000   0.0000   0.00    0.0   1.14
2022/07/09 01:57:13.200  -2183030.5266   4364551.1400   4093189.0134   6   4   1.3843  13.6254  13.7661   0.0000   0.0000   0.0000   0.00    0.0   1.14
2022/07/09 01:57:13.400  -2183030.8070   4364553.8106   4093191.7277   6   4   1.3856  13.6334  13.7740   0.0000   0.0000   0.0000   0.00    0.0   1.14
2022/07/09 01:57:13.600  -2183030.4141   4364549.8577   4093187.7376   6   4   1.3868  13.6414  13.7820   0.0000   0.0000   0.0000   0.00    0.0   1.14
2022/07/09 01:57:13.800  -2183030.3067   4364548.7214   4093186.6212   6   4   1.3881  13.6494  13.7899   0.0000   0.0000   0.0000   0.00    0.0   1.14
2022/07/09 01:57:14.000  -2183029.7619   4364543.2847   4093181.1570   6   4   1.3893  13.6575  13.7979   0.0000   0.0000   0.0000   0.00    0.0   1.14
2022/07/09 01:57:14.200  -2183030.5449   4364550.9818   4093188.9476   6   4   1.3906  13.6656  13.8059   0.0000   0.0000   0.0000   0.00    0.0   1.16
2022/07/09 01:57:14.400  -2183030.8713   4364553.9473   4093191.9491   6   4   1.3919  13.6736  13.8139   0.0000   0.0000   0.0000   0.00    0.0   1.16
2022/07/09 01:57:14.600  -2183030.8504   4364553.6193   4093191.6430   6   4   1.3931  13.6817  13.8219   0.0000   0.0000   0.0000   0.00    0.0   1.16
2022/07/09 01:57:14.800  -2183030.5544   4364550.6691   4093188.6792   6   4   1.3944  13.6899  13.8300   0.0000   0.0000   0.0000   0.00    0.0   1.16
2022/07/09 01:57:15.000  -2183029.7289   4364542.4053   4093180.3543   6   4   1.3957  13.6980  13.8380   0.0000   0.0000   0.0000   0.00    0.0   1.15
2022/07/09 01:57:15.200  -2183030.3924   4364548.8060   4093186.8387   6   4   1.3969  13.7062  13.8461   0.0000   0.0000   0.0000   0.00    0.0   1.14
2022/07/09 01:57:15.400  -2183030.4901   4364549.8509   4093187.9094   6   4   1.3982  13.7143  13.8542   0.0000   0.0000   0.0000   0.00    0.0   1.14
2022/07/09 01:57:15.600  -2183030.9379   4364554.0855   4093192.1874   6   4   1.3995  13.7225  13.8623   0.0000   0.0000   0.0000   0.00    0.0   1.16
2022/07/09 01:57:15.800  -2183031.0144   4364554.6973   4093192.8453   6   4   1.4008  13.7307  13.8704   0.0000   0.0000   0.0000   0.00    0.0   1.15
2022/07/09 01:57:16.000  -2183031.9138   4364563.5448   4093201.7966   6   4   1.4020  13.7390  13.8786   0.0000   0.0000   0.0000   0.00    0.0   1.16
2022/07/09 01:57:16.200  -2183031.7452   4364561.7416   4093199.9933   6   4   1.4033  13.7472  13.8867   0.0000   0.0000   0.0000   0.00    0.0   1.16
2022/07/09 01:57:16.400  -2183031.3583   4364557.8602   4093196.0929   6   4   1.4046  13.7555  13.8949   0.0000   0.0000   0.0000   0.00    0.0   1.17
2022/07/09 01:57:16.600  -2183030.8635   4364553.0549   4093191.2549   6   4   1.4059  13.7637  13.9031   0.0000   0.0000   0.0000   0.00    0.0   1.17
2022/07/09 01:57:16.800  -2183031.1624   4364555.8076   4093194.0550   6   4   1.4072  13.7720  13.9113   0.0000   0.0000   0.0000   0.00    0.0   1.18
2022/07/09 01:57:17.000  -2183031.1943   4364555.8886   4093194.1579   6   4   1.4085  13.7803  13.9195   0.0000   0.0000   0.0000   0.00    0.0   1.17
2022/07/09 01:57:17.200  -2183031.2201   4364556.0731   4093194.3656   6   4   1.4098  13.7887  13.9278   0.0000   0.0000   0.0000   0.00    0.0   1.17
2022/07/09 01:57:17.400  -2183030.8056   4364551.9757   4093190.2376   6   4   1.4111  13.7970  13.9360   0.0000   0.0000   0.0000   0.00    0.0   1.18
2022/07/09 01:57:17.600  -2183031.2480   4364556.2755   4093194.5937   6   4   1.4124  13.8054  13.9443   0.0000   0.0000   0.0000   0.00    0.0   1.19
2022/07/09 01:57:17.800  -2183032.1523   4364565.0837   4093203.4957   6   4   1.4137  13.8138  13.9526   0.0000   0.0000   0.0000   0.00    0.0   1.20
2022/07/09 01:57:18.000  -2183031.6344   4364559.9137   4093198.3059   6   4   1.4150  13.8221  13.9609   0.0000   0.0000   0.0000   0.00    0.0   1.19
2022/07/09 01:57:18.200  -2183031.7515   4364560.9469   4093199.3649   6   4   1.4163  13.8306  13.9693   0.0000   0.0000   0.0000   0.00    0.0   1.20
2022/07/09 01:57:18.400  -2183031.9444   4364562.7083   4093201.1822   6   4   1.4176  13.8390  13.9776   0.0000   0.0000   0.0000   0.00    0.0   1.21
2022/07/09 01:57:18.600  -2183032.2719   4364565.8000   4093204.3074   6   4   1.4189  13.8474  13.9860   0.0000   0.0000   0.0000   0.00    0.0   1.21
2022/07/09 01:57:18.800  -2183031.4669   4364557.8941   4093196.3463   6   4   1.4203  13.8559  13.9944   0.0000   0.0000   0.0000   0.00    0.0   1.20
2022/07/09 01:57:19.000  -2183031.1558   4364554.8612   4093193.2951   6   4   1.4216  13.8644  14.0028   0.0000   0.0000   0.0000   0.00    0.0   1.20
2022/07/09 01:57:19.200  -2183031.7497   4364560.4002   4093198.9192   6   4   1.4229  13.8729  14.0112   0.0000   0.0000   0.0000   0.00    0.0   1.21
2022/07/09 01:57:19.400  -2183032.4987   4364567.6650   4093206.2656   6   4   1.4242  13.8814  14.0196   0.0000   0.0000   0.0000   0.00    0.0   1.22
2022/07/09 01:57:19.600  -2183032.1114   4364563.9352   4093202.5131   6   4   1.4256  13.8899  14.0281   0.0000   0.0000   0.0000   0.00    0.0   1.22
2022/07/09 01:57:19.800  -2183031.9186   4364561.9186   4093200.4998   6   4   1.4269  13.8985  14.0365   0.0000   0.0000   0.0000   0.00    0.0   1.22
2022/07/09 01:57:20.000  -2183031.2313   4364555.0722   4093193.6000   6   4   1.4282  13.9071  14.0450   0.0000   0.0000   0.0000   0.00    0.0   1.20
2022/07/09 01:57:20.200  -2183031.2199   4364554.9368   4093193.4746   6   4   1.4296  13.9156  14.0535   0.0000   0.0000   0.0000   0.00    0.0   1.22
2022/07/09 01:57:20.400  -2183031.8581   4364561.1201   4093199.7257   6   4   1.4309  13.9242  14.0620   0.0000   0.0000   0.0000   0.00    0.0   1.22
2022/07/09 01:57:20.600  -2183031.2633   4364555.1271   4093193.7041   6   4   1.4322  13.9329  14.0706   0.0000   0.0000   0.0000   0.00    0.0   1.21
