%  GPST                      x-ecef(m)      y-ecef(m)      z-ecef(m)   Q  ns   sdx(m)   sdy(m)   sdz(m)  sdxy(m)  sdyz(m)  sdzx(m) age(s)  ratio  sigma
2021/12/03 06:58:46.000  -2173711.2077   4383335.0477   4078034.6793   6   7   2.4437   3.1112   5.9301   0.0000   0.0000   0.0000   0.00    0.0   0.31
2021/12/03 06:58:47.000  -2173711.3338   4383335.0815   4078034.7574   6   7   1.7471   2.2280   4.2227   0.0000   0.0000   0.0000   0.00    0.0   0.33
2021/12/03 06:58:48.000  -2173711.4380   4383335.1124   4078034.7572   6   7   1.4401   1.8399   3.4647   0.0000   0.0000   0.0000   0.00    0.0   0.35
2021/12/03 06:58:49.000  -2173711.5403   4383335.1314   4078034.7456   6   7   1.2584   1.6107   3.0135   0.0000   0.0000   0.0000   0.00    0.0   0.37
2021/12/03 06:58:50.000  -2173711.6384   4383335.1404   4078034.7815   6   7   1.1353   1.4559   2.7064   0.0000   0.0000   0.0000   0.00    0.0   0.39
2021/12/03 06:58:51.000  -2173711.7243   4383335.1468   4078034.7911   6   7   1.0451   1.3427   2.4802   0.0000   0.0000   0.0000   0.00    0.0   0.41
2021/12/03 06:58:52.000  -2173711.8039   4383335.1397   4078034.7755   6   7   0.9756   1.2555   2.3050   0.0000   0.0000   0.0000   0.00    0.0   0.43
2021/12/03 06:58:53.000  -2173711.8739   4383335.1378   4078034.7706   6   7   0.9199   1.1859   2.1641   0.0000   0.0000   0.0000   0.00    0.0   0.44
2021/12/03 06:58:54.000  -2173711.9314   4383335.1196   4078034.7363   6   7   0.8741   1.1288   2.0478   0.0000   0.0000   0.0000   0.00    0.0   0.46
2021/12/03 06:58:55.000  -2173711.9854   4383335.1063   4078034.6968   6   7   0.8357   1.0809   1.9496   0.0000   0.0000   0.0000   0.00    0.0   0.48
2021/12/03 06:58:56.000  -2173712.0360   4383335.0855   4078034.6520   6   7   0.8028   1.0400   1.8654   0.0000   0.0000   0.0000   0.00    0.0   0.49
2021/12/03 06:58:57.000  -2173712.0812   4383335.0603   4078034.6027   6   7   0.7743   1.0047   1.7921   0.0000   0.0000   0.0000   0.00    0.0   0.51
2021/12/03 06:58:58.000  -2173712.1165   4383335.0252   4078034.5554   6   7   0.7493   0.9738   1.7277   0.0000   0.0000   0.0000   0.00    0.0   0.52
2021/12/03 06:58:59.000  -2173712.1491   4383334.9981   4078034.4818   6   7   0.7272   0.9465   1.6703   0.0000   0.0000   0.0000   0.00    0.0   0.55
2021/12/03 06:59:00.000  -2173712.2630   4383334.8890   4078034.2576   6   7   0.7076   0.9241   1.6228   0.0000   0.0000   0.0000   0.00    0.0   0.54
2021/12/03 06:59:01.000  -2173712.3176   4383334.7814   4078034.0955   6   7   0.6900   0.9059   1.5836   0.0000   0.0000   0.0000   0.00    0.0   0.56
2021/12/03 06:59:02.000  -2173712.3768   4383334.7220   4078033.9294   6   7   0.6742   0.8919   1.5527   0.0000   0.0000   0.0000   0.00    0.0   0.58
2021/12/03 06:59:03.000  -2173712.3973   4383334.6519   4078033.7661   6   7   0.6599   0.8801   1.5265   0.0000   0.0000   0.0000   0.00    0.0   0.58
2021/12/03 06:59:04.000  -2173712.4066   4383334.5802   4078033.6511   6   7   0.6468   0.8697   1.5033   0.0000   0.0000   0.0000   0.00    0.0   0.58
2021/12/03 06:59:05.000  -2173712.4057   4383334.5050   4078033.5604   6   7   0.6348   0.8605   1.4824   0.0000   0.0000   0.0000   0.00    0.0   0.60
2021/12/03 06:59:06.000  -2173712.4013   4383334.4425   4078033.4258   6   7   0.6237   0.8522   1.4635   0.0000   0.0000   0.0000   0.00    0.0   0.61
2021/12/03 06:59:07.000  -2173712.3742   4383334.3856   4078033.2423   6   7   0.6134   0.8445   1.4460   0.0000   0.0000   0.0000   0.00    0.0   0.61
2021/12/03 06:59:08.000  -2173712.3286   4383334.3211   4078033.1207   6   7   0.6038   0.8375   1.4299   0.0000   0.0000   0.0000   0.00    0.0   0.62
2021/12/03 06:59:09.000  -2173712.2773   4383334.2584   4078033.0570   6   7   0.5949   0.8311   1.4150   0.0000   0.0000   0.0000   0.00    0.0   0.63
2021/12/03 06:59:10.000  -2173712.2313   4383334.1783   4078033.0729   6   7   0.5866   0.8251   1.4010   0.0000   0.0000   0.0000   0.00    0.0   0.64
2021/12/03 06:59:11.000  -2173712.1739   4383334.1029   4078033.0393   6   7   0.5788   0.8195   1.3880   0.0000   0.0000   0.0000   0.00    0.0   0.64
2021/12/03 06:59:12.000  -2173712.1249   4383334.0207   4078033.0483   6   7   0.5714   0.8142   1.3757   0.0000   0.0000   0.0000   0.00    0.0   0.65
2021/12/03 06:59:13.000  -2173712.0510   4383333.9254   4078033.0586   6   7   0.5645   0.8093   1.3642   0.0000   0.0000   0.0000   0.00    0.0   0.66
2021/12/03 06:59:14.000  -2173711.9704   4383333.8260   4078033.0433   6   7   0.5579   0.8047   1.3533   0.0000   0.0000   0.0000   0.00    0.0   0.66
2021/12/03 06:59:15.000  -2173711.8923   4383333.7344   4078032.9880   6   7   0.5517   0.8004   1.3431   0.0000   0.0000   0.0000   0.00    0.0   0.67
2021/12/03 06:59:16.000  -2173711.8191   4383333.6390   4078032.9603   6   7   0.5458   0.7963   1.3333   0.0000   0.0000   0.0000   0.00    0.0   0.67
2021/12/03 06:59:17.000  -2173711.7391   4383333.5367   4078032.9976   6   7   0.5402   0.7924   1.3241   0.0000   0.0000   0.0000   0.00    0.0   0.68
2021/12/03 06:59:18.000  -2173711.6587   4383333.4282   4078033.0306   6   7   0.5348   0.7888   1.3152   0.0000   0.0000   0.0000   0.00    0.0   0.69
2021/12/03 06:59:19.000  -2173711.5759   4383333.3241   4078033.0385   6   7   0.5298   0.7853   1.3069   0.0000   0.0000   0.0000   0.00    0.0   0.70
2021/12/03 06:59:20.000  -2173711.4939   4383333.2089   4078033.1181   6   7   0.5249   0.7820   1.2988   0.0000   0.0000   0.0000   0.00    0.0   0.71
2021/12/03 06:59:21.000  -2173711.4068   4383333.0959   4078033.1936   6   7   0.5202   0.7789   1.2912   0.0000   0.0000   0.0000   0.00    0.0   0.72
2021/12/03 06:59:22.000  -2173711.3371   4383332.9850   4078033.2169   6   7   0.5158   0.7759   1.2838   0.0000   0.0000   0.0000   0.00    0.0   0.72
2021/12/03 06:59:23.000  -2173711.2905   4383332.8633   4078033.1762   6   6   0.5110   0.7641   1.2584   0.0000   0.0000   0.0000   0.00    0.0   0.53
2021/12/03 06:59:24.000  -2173711.2453   4383332.7542   4078033.0960   6   6   0.5065   0.7534   1.2352   0.0000   0.0000   0.0000   0.00    0.0   0.55
2021/12/03 06:59:25.000  -2173711.2100   4383332.6569   4078033.0783   6   6   0.5022   0.7435   1.2137   0.0000   0.0000   0.0000   0.00    0.0   0.55
2021/12/03 06:59:26.000  -2173711.1798   4383332.5579   4078033.1106   6   6   0.4980   0.7343   1.1936   0.0000   0.0000   0.0000   0.00    0.0   0.57
2021/12/03 06:59:27.000  -2173711.1418   4383332.4640   4078033.1245   6   6   0.4941   0.7258   1.1749   0.0000   0.0000   0.0000   0.00    0.0   0.59
2021/12/03 06:59:28.000  -2173711.1051   4383332.3747   4078033.1144   6   6   0.4903   0.7179   1.1573   0.0000   0.0000   0.0000   0.00    0.0   0.57
2021/12/03 06:59:29.000  -2173711.0713   4383332.2935   4078033.1229   6   6   0.4866   0.7104   1.1407   0.0000   0.0000   0.0000   0.00    0.0   0.60
2021/12/03 06:59:30.000  -2173711.0366   4383332.2194   4078033.1563   6   6   0.4831   0.7034   1.1251   0.0000   0.0000   0.0000   0.00    0.0   0.64
2021/12/03 06:59:31.000  -2173711.0031   4383332.1328   4078033.1879   6   6   0.4797   0.6969   1.1103   0.0000   0.0000   0.0000   0.00    0.0   0.63
2021/12/03 06:59:32.000  -2173710.9401   4383332.0031   4078033.2966   6   6   0.4764   0.6909   1.0963   0.0000   0.0000   0.0000   0.00    0.0   0.64
2021/12/03 06:59:33.000  -2173710.8637   4383331.8701   4078033.4375   6   6   0.4733   0.6854   1.0830   0.0000   0.0000   0.0000   0.00    0.0   0.65
2021/12/03 06:59:34.000  -2173710.7944   4383331.7499   4078033.5717   6   6   0.4703   0.6806   1.0704   0.0000   0.0000   0.0000   0.00    0.0   0.64
2021/12/03 06:59:35.000  -2173710.7360   4383331.6437   4078033.7196   6   6   0.4675   0.6762   1.0584   0.0000   0.0000   0.0000   0.00    0.0   0.63
2021/12/03 06:59:36.000  -2173710.6684   4383331.5348   4078033.8594   6   6   0.4647   0.6716   1.0469   0.0000   0.0000   0.0000   0.00    0.0   0.63
2021/12/03 06:59:37.000  -2173710.6430   4383331.4742   4078033.9392   6   6   0.4619   0.6668   1.0357   0.0000   0.0000   0.0000   0.00    0.0   0.59
2021/12/03 06:59:38.000  -2173710.5961   4383331.4080   4078033.9680   6   6   0.4591   0.6621   1.0250   0.0000   0.0000   0.0000   0.00    0.0   0.66
2021/12/03 06:59:39.000  -2173710.5507   4383331.3422   4078033.9600   6   6   0.4564   0.6577   1.0147   0.0000   0.0000   0.0000   0.00    0.0   0.62
2021/12/03 06:59:40.000  -2173710.5087   4383331.2781   4078033.9633   6   6   0.4538   0.6535   1.0048   0.0000   0.0000   0.0000   0.00    0.0   0.64
2021/12/03 06:59:41.000  -2173710.4663   4383331.2183   4078033.9715   6   6   0.4513   0.6494   0.9952   0.0000   0.0000   0.0000   0.00    0.0   0.63
2021/12/03 06:59:42.000  -2173710.4230   4383331.1523   4078033.9791   6   6   0.4488   0.6455   0.9860   0.0000   0.0000   0.0000   0.00    0.0   0.59
2021/12/03 06:59:43.000  -2173710.3850   4383331.0871   4078033.9818   6   6   0.4464   0.6417   0.9771   0.0000   0.0000   0.0000   0.00    0.0   0.59
2021/12/03 06:59:44.000  -2173710.3362   4383331.0320   4078033.9755   6   6   0.4441   0.6381   0.9685   0.0000   0.0000   0.0000   0.00    0.0   0.56
2021/12/03 06:59:45.000  -2173710.2859   4383330.9662   4078033.9398   6   6   0.4418   0.6346   0.9602   0.0000   0.0000   0.0000   0.00    0.0   0.55
2021/12/03 06:59:46.000  -2173710.2364   4383330.9095   4078033.9133   6   6   0.4396   0.6313   0.9521   0.0000   0.0000   0.0000   0.00    0.0   0.56
2021/12/03 06:59:47.000  -2173710.1894   4383330.8600   4078033.8630   6   6   0.4374   0.6280   0.9443   0.0000   0.0000   0.0000   0.00    0.0   0.54
2021/12/03 06:59:48.000  -2173710.1440   4383330.8061   4078033.8388   6   6   0.4352   0.6249   0.9367   0.0000   0.0000   0.0000   0.00    0.0   0.51
2021/12/03 06:59:49.000  -2173710.1038   4383330.7664   4078033.8011   6   6   0.4331   0.6219   0.9294   0.0000   0.0000   0.0000   0.00    0.0   0.49
2021/12/03 06:59:50.000  -2173710.0563   4383330.7230   4078033.7456   6   6   0.4311   0.6190   0.9222   0.0000   0.0000   0.0000   0.00    0.0   0.46
2021/12/03 06:59:51.000  -2173710.0038   4383330.6774   4078033.6731   6   6   0.4290   0.6161   0.9152   0.0000   0.0000   0.0000   0.00    0.0   0.48
2021/12/03 06:59:52.000  -2173709.9512   4383330.6470   4078033.5758   6   6   0.4271   0.6134   0.9085   0.0000   0.0000   0.0000   0.00    0.0   0.46
2021/12/03 06:59:53.000  -2173709.8606   4383330.6101   4078033.4537   6   7   0.4252   0.6121   0.9050   0.0000   0.0000   0.0000   0.00    0.0   0.66
2021/12/03 06:59:54.000  -2173709.7677   4383330.5768   4078033.3243   6   7   0.4234   0.6108   0.9016   0.0000   0.0000   0.0000   0.00    0.0   0.64
2021/12/03 06:59:55.000  -2173709.6741   4383330.5461   4078033.1714   6   7   0.4216   0.6096   0.8982   0.0000   0.0000   0.0000   0.00    0.0   0.63
2021/12/03 06:59:56.000  -2173709.5808   4383330.5250   4078033.0203   6   7   0.4198   0.6084   0.8950   0.0000   0.0000   0.0000   0.00    0.0   0.62
2021/12/03 06:59:57.000  -2173709.5057   4383330.5128   4078032.8723   6   7   0.4181   0.6072   0.8917   0.0000   0.0000   0.0000   0.00    0.0   0.60
2021/12/03 06:59:58.000  -2173709.4240   4383330.5095   4078032.6639   6   7   0.4164   0.6060   0.8886   0.0000   0.0000   0.0000   0.00    0.0   0.61
2021/12/03 06:59:59.000  -2173709.3366   4383330.5057   4078032.4395   6   7   0.4147   0.6049   0.8855   0.0000   0.0000   0.0000   0.00    0.0   0.60
2021/12/03 07:00:00.000  -2173709.2319   4383330.4965   4078032.1561   6   7   0.4131   0.6037   0.8824   0.0000   0.0000   0.0000   0.00    0.0   0.63
2021/12/03 07:00:01.000  -2173709.1357   4383330.4906   4078031.9017   6   7   0.4114   0.6026   0.8792   0.0000   0.0000   0.0000   0.00    0.0   0.60
2021/12/03 07:00:02.000  -2173709.0567   4383330.4947   4078031.6680   6   7   0.4098   0.6014   0.8761   0.0000   0.0000   0.0000   0.00    0.0   0.59
2021/12/03 07:00:03.000  -2173708.9717   4383330.5011   4078031.4027   6   7   0.4082   0.6002   0.8728   0.0000   0.0000   0.0000   0.00    0.0   0.60
2021/12/03 07:00:04.000  -2173708.8964   4383330.5095   4078031.1288   6   7   0.4067   0.5989   0.8693   0.0000   0.0000   0.0000   0.00    0.0   0.59
2021/12/03 07:00:05.000  -2173708.8268   4383330.5304   4078030.8614   6   7   0.4051   0.5974   0.8655   0.0000   0.0000   0.0000   0.00    0.0   0.59
2021/12/03 07:00:06.000  -2173708.7635   4383330.5514   4078030.6267   6   7   0.4036   0.5958   0.8612   0.0000   0.0000   0.0000   0.00    0.0   0.60
2021/12/03 07:00:07.000  -2173708.6947   4383330.5781   4078030.3774   6   7   0.4020   0.5938   0.8561   0.0000   0.0000   0.0000   0.00    0.0   0.59
2021/12/03 07:00:08.000  -2173708.6855   4383330.5874   4078030.3366   6   7   0.4004   0.5915   0.8503   0.0000   0.0000   0.0000   0.00    0.0   0.58
2021/12/03 07:00:09.000  -2173708.6652   4383330.5971   4078030.2617   6   7   0.3989   0.5892   0.8446   0.0000   0.0000   0.0000   0.00    0.0   0.61
2021/12/03 07:00:10.000  -2173708.6502   4383330.6162   4078030.2127   6   7   0.3974   0.5871   0.8391   0.0000   0.0000   0.0000   0.00    0.0   0.61
2021/12/03 07:00:11.000  -2173708.6387   4383330.6337   4078030.1551   6   7   0.3959   0.5850   0.8337   0.0000   0.0000   0.0000   0.00    0.0   0.60
2021/12/03 07:00:12.000  -2173708.6241   4383330.6466   4078030.0830   6   7   0.3944   0.5829   0.8285   0.0000   0.0000   0.0000   0.00    0.0   0.63
2021/12/03 07:00:13.000  -2173708.6115   4383330.6645   4078030.0308   6   7   0.3929   0.5809   0.8233   0.0000   0.0000   0.0000   0.00    0.0   0.63
2021/12/03 07:00:14.000  -2173708.5948   4383330.6803   4078029.9860   6   7   0.3915   0.5789   0.8182   0.0000   0.0000   0.0000   0.00    0.0   0.64
2021/12/03 07:00:15.000  -2173708.5750   4383330.7060   4078029.9277   6   7   0.3900   0.5770   0.8133   0.0000   0.0000   0.0000   0.00    0.0   0.65
2021/12/03 07:00:16.000  -2173708.5665   4383330.7269   4078029.8743   6   7   0.3886   0.5751   0.8084   0.0000   0.0000   0.0000   0.00    0.0   0.63
2021/12/03 07:00:17.000  -2173708.5571   4383330.7532   4078029.8219   6   7   0.3872   0.5732   0.8036   0.0000   0.0000   0.0000   0.00    0.0   0.63
2021/12/03 07:00:18.000  -2173708.5793   4383330.7579   4078029.7841   6   7   0.3858   0.5714   0.7989   0.0000   0.0000   0.0000   0.00    0.0   0.62
2021/12/03 07:00:19.000  -2173708.9031   4383330.5471   4078030.0278   6   7   0.3862   0.5712   0.9047   0.0000   0.0000   0.0000   0.00    0.0   0.76
2021/12/03 07:00:20.000  -2173709.4980   4383330.0536   4078030.5660   6   7   0.3846   0.5690   0.8419   0.0000   0.0000   0.0000   0.00    0.0   0.73
2021/12/03 07:00:21.000  -2173710.1451   4383329.3667   4078031.0517   6   7   0.3839   0.5679   0.8952   0.0000   0.0000   0.0000   0.00    0.0   0.68
2021/12/03 07:00:22.000  -2173710.9905   4383328.5014   4078031.8579   6   7   0.3827   0.5662   0.8911   0.0000   0.0000   0.0000   0.00    0.0   0.77
2021/12/03 07:00:23.000  -2173712.2189   4383327.4763   4078032.4312   6   7   0.3816   0.5646   0.8872   0.0000   0.0000   0.0000   0.00    0.0   0.71
2021/12/03 07:00:24.000  -2173714.0160   4383326.1363   4078032.9529   6   7   0.3800   0.5625   0.8255   0.0000   0.0000   0.0000   0.00    0.0   0.65
2021/12/03 07:00:25.000  -2173716.2944   4383324.6723   4078033.1907   6   7   0.3787   0.5608   0.8014   0.0000   0.0000   0.0000   0.00    0.0   0.65
2021/12/03 07:00:26.000  -2173718.9678   4383322.9284   4078033.8656   6   7   0.3775   0.5592   0.7873   0.0000   0.0000   0.0000   0.00    0.0   0.74
2021/12/03 07:00:27.000  -2173722.2081   4383320.8058   4078034.2481   6   6   0.3773   0.5587   0.8770   0.0000   0.0000   0.0000   0.00    0.0   0.54
2021/12/03 07:00:28.000  -2173725.9114   4383318.4946   4078034.8784   6   6   0.3763   0.5586   0.8790   0.0000   0.0000   0.0000   0.00    0.0   0.72
2021/12/03 07:00:29.000  -2173729.9375   4383316.0767   4078035.3866   6   6   0.3753   0.5573   0.8760   0.0000   0.0000   0.0000   0.00    0.0   0.72
2021/12/03 07:00:30.000  -2173734.4015   4383313.5656   4078035.6844   6   6   0.3742   0.5546   0.8672   0.0000   0.0000   0.0000   0.00    0.0   0.56
2021/12/03 07:00:31.000  -2173739.3564   4383310.9377   4078035.9928   6   7   0.3725   0.5525   0.8503   0.0000   0.0000   0.0000   0.00    0.0   0.60
2021/12/03 07:00:32.000  -2173744.7648   4383308.3706   4078036.7664   6   7   0.3703   0.5504   0.7834   0.0000   0.0000   0.0000   0.00    0.0   0.70
2021/12/03 07:00:33.000  -2173750.2855   4383305.4924   4078037.2558   6   7   0.3684   0.5481   0.7543   0.0000   0.0000   0.0000   0.00    0.0   0.62
2021/12/03 07:00:34.000  -2173755.6331   4383302.6832   4078037.5906   6   8   0.3666   0.5459   0.7352   0.0000   0.0000   0.0000   0.00    0.0   0.63
2021/12/03 07:00:35.000  -2173760.5739   4383300.1255   4078037.7786   6   7   0.3913   0.5508   0.7896   0.0000   0.0000   0.0000   0.00    0.0   0.47
2021/12/03 07:00:36.000  -2173765.3017   4383297.5701   4078037.7766   6   7   0.3886   0.5489   0.7840   0.0000   0.0000   0.0000   0.00    0.0   0.60
2021/12/03 07:00:37.000  -2173770.3100   4383295.1694   4078038.0389   6   7   0.3873   0.5476   0.7801   0.0000   0.0000   0.0000   0.00    0.0   0.72
2021/12/03 07:00:38.000  -2173774.9855   4383292.5052   4078037.8917   6   7   0.3862   0.5463   0.7766   0.0000   0.0000   0.0000   0.00    0.0   0.66
2021/12/03 07:00:39.000  -2173780.4001   4383289.9070   4078038.4239   6   7   0.3853   0.5451   0.7734   0.0000   0.0000   0.0000   0.00    0.0   0.50
2021/12/03 07:00:40.000  -2173785.8619   4383286.8463   4078038.5316   6   7   0.3845   0.5440   0.7704   0.0000   0.0000   0.0000   0.00    0.0   0.46
2021/12/03 07:00:41.000  -2173791.7842   4383283.7900   4078039.0238   6   7   0.3837   0.5429   0.7674   0.0000   0.0000   0.0000   0.00    0.0   0.50
2021/12/03 07:00:42.000  -2173797.3453   4383280.5182   4078038.0236   6   6   0.5111   0.5587   2.3981   0.0000   0.0000   0.0000   0.00    0.0   0.47
2021/12/03 07:00:43.000  -2173803.2005   4383277.3772   4078037.6887   6   6   0.5114   0.5578   2.4023   0.0000   0.0000   0.0000   0.00    0.0   0.46
2021/12/03 07:00:44.000  -2173809.1761   4383274.1299   4078038.1426   6   6   0.5117   0.5569   2.4062   0.0000   0.0000   0.0000   0.00    0.0   0.48
2021/12/03 07:00:45.000  -2173815.1663   4383270.8654   4078037.0968   6   6   0.5120   0.5560   2.4104   0.0000   0.0000   0.0000   0.00    0.0   0.44
2021/12/03 07:00:46.000  -2173821.6951   4383267.5959   4078039.0383   6   6   0.5123   0.5552   2.4145   0.0000   0.0000   0.0000   0.00    0.0   0.46
2021/12/03 07:00:47.000  -2173828.6013   4383264.3860   4078041.1756   6   7   0.4831   0.5504   2.1045   0.0000   0.0000   0.0000   0.00    0.0   0.59
2021/12/03 07:00:48.000  -2173835.3557   4383260.9676   4078041.2310   6   7   0.4405   0.5438   1.6205   0.0000   0.0000   0.0000   0.00    0.0   0.53
2021/12/03 07:00:49.000  -2173842.0713   4383257.3535   4078040.8080   6   7   0.4248   0.5410   1.4191   0.0000   0.0000   0.0000   0.00    0.0   0.45
2021/12/03 07:00:50.000  -2173848.7759   4383253.6770   4078040.8965   6   7   0.4164   0.5391   1.3041   0.0000   0.0000   0.0000   0.00    0.0   0.45
2021/12/03 07:00:51.000  -2173855.5640   4383250.2399   4078042.1426   6   7   0.4109   0.5376   1.2279   0.0000   0.0000   0.0000   0.00    0.0   0.60
2021/12/03 07:00:52.000  -2173861.8615   4383247.6295   4078040.3873   6   4   0.5586   1.2063   2.4818   0.0000   0.0000   0.0000   0.00    0.0   0.51
2021/12/03 07:00:53.000  -2173868.5429   4383243.2511   4078042.7528   6   4   0.5590   1.2072   2.4884   0.0000   0.0000   0.0000   0.00    0.0   0.49
2021/12/03 07:00:54.000  -2173874.8832   4383240.0126   4078040.5065   6   4   0.5594   1.2081   2.4949   0.0000   0.0000   0.0000   0.00    0.0   0.48
2021/12/03 07:00:55.000  -2173881.8908   4383236.6750   4078042.2430   6   4   0.5597   1.2091   2.5015   0.0000   0.0000   0.0000   0.00    0.0   0.48
2021/12/03 07:00:56.000  -2173888.7495   4383233.6678   4078042.6751   6   5   0.5560   1.1384   2.5082   0.0000   0.0000   0.0000   0.00    0.0   0.43
2021/12/03 07:00:57.000  -2173894.9393   4383229.9036   4078040.1712   6   6   0.5308   0.8838   2.4602   0.0000   0.0000   0.0000   0.00    0.0   0.56
2021/12/03 07:00:58.000  -2173901.2726   4383226.5993   4078041.0935   6   6   0.5255   0.7845   2.4597   0.0000   0.0000   0.0000   0.00    0.0   0.54
2021/12/03 07:00:59.000  -2173906.9430   4383222.9201   4078041.8129   6   6   0.5237   0.7302   2.4649   0.0000   0.0000   0.0000   0.00    0.0   0.50
2021/12/03 07:01:00.000  -2173912.6739   4383220.3246   4078042.8604   6   5   0.4739   0.6963   2.0185   0.0000   0.0000   0.0000   0.00    0.0   0.32
2021/12/03 07:01:01.000  -2173917.9535   4383217.4569   4078042.2484   6   5   0.4483   0.6781   1.8498   0.0000   0.0000   0.0000   0.00    0.0   0.56
2021/12/03 07:01:02.000  -2173923.6428   4383214.6268   4078042.5137   6   5   0.4331   0.6659   1.7462   0.0000   0.0000   0.0000   0.00    0.0   0.36
2021/12/03 07:01:03.000  -2173929.7386   4383211.6428   4078043.7160   6   6   0.6133   0.6709   3.0814   0.0000   0.0000   0.0000   0.00    0.0   0.50
2021/12/03 07:01:04.000  -2173935.4184   4383208.8103   4078045.1255   6   7   0.4791   0.6519   2.0613   0.0000   0.0000   0.0000   0.00    0.0   0.52
2021/12/03 07:01:05.000  -2173940.1912   4383206.2316   4078044.8810   6   7   0.4375   0.6412   1.7043   0.0000   0.0000   0.0000   0.00    0.0   0.55
2021/12/03 07:01:06.000  -2173944.4879   4383203.8518   4078045.5574   6   8   0.4057   0.6331   1.4074   0.0000   0.0000   0.0000   0.00    0.0   0.43
2021/12/03 07:01:07.000  -2173947.8025   4383201.3921   4078046.8274   6   8   0.3892   0.6262   1.2426   0.0000   0.0000   0.0000   0.00    0.0   0.58
2021/12/03 07:01:08.000  -2173949.7631   4383198.8223   4078048.4996   6   8   0.3789   0.6201   1.1348   0.0000   0.0000   0.0000   0.00    0.0   0.50
2021/12/03 07:01:09.000  -2173950.6059   4383196.2446   4078050.9639   6   8   0.3718   0.6146   1.0574   0.0000   0.0000   0.0000   0.00    0.0   0.52
2021/12/03 07:01:10.000  -2173950.4576   4383193.8372   4078053.6551   6   8   0.3664   0.6095   0.9985   0.0000   0.0000   0.0000   0.00    0.0   0.52
2021/12/03 07:01:11.000  -2173949.6581   4383191.4209   4078056.6491   6   8   0.3651   0.6056   0.9530   0.0000   0.0000   0.0000   0.00    0.0   0.54
2021/12/03 07:01:12.000  -2173948.4818   4383188.8854   4078060.0955   6   8   0.3606   0.6010   0.9149   0.0000   0.0000   0.0000   0.00    0.0   0.54
2021/12/03 07:01:13.000  -2173946.6738   4383186.4369   4078063.6157   6   8   0.3572   0.5967   0.8828   0.0000   0.0000   0.0000   0.00    0.0   0.60
2021/12/03 07:01:14.000  -2173944.6259   4383184.9485   4078066.3210   6   8   0.3545   0.5928   0.8553   0.0000   0.0000   0.0000   0.00    0.0   0.58
2021/12/03 07:01:15.000  -2173942.6819   4383184.3304   4078068.0124   6   8   0.3522   0.5891   0.8316   0.0000   0.0000   0.0000   0.00    0.0   0.59
2021/12/03 07:01:16.000  -2173940.4536   4383184.2336   4078069.3237   6   8   0.3502   0.5856   0.8107   0.0000   0.0000   0.0000   0.00    0.0   0.56
2021/12/03 07:01:17.000  -2173937.7212   4383184.7440   4078070.3053   6   8   0.3484   0.5822   0.7922   0.0000   0.0000   0.0000   0.00    0.0   0.56
2021/12/03 07:01:18.000  -2173934.3873   4383186.0821   4078070.7898   6   8   0.3467   0.5791   0.7757   0.0000   0.0000   0.0000   0.00    0.0   0.69
2021/12/03 07:01:19.000  -2173930.4895   4383188.1098   4078070.5708   6   7   0.3462   0.5761   0.7703   0.0000   0.0000   0.0000   0.00    0.0   0.54
2021/12/03 07:01:20.000  -2173926.1184   4383190.4689   4078070.2969   6   7   0.3455   0.5732   0.7646   0.0000   0.0000   0.0000   0.00    0.0   0.56
2021/12/03 07:01:21.000  -2173921.4115   4383193.0351   4078070.0290   6   7   0.3449   0.5704   0.7592   0.0000   0.0000   0.0000   0.00    0.0   0.55
2021/12/03 07:01:22.000  -2173916.3802   4383195.7319   4078069.8072   6   7   0.3443   0.5678   0.7540   0.0000   0.0000   0.0000   0.00    0.0   0.57
2021/12/03 07:01:23.000  -2173911.0629   4383198.4858   4078069.5960   6   7   0.3437   0.5652   0.7491   0.0000   0.0000   0.0000   0.00    0.0   0.54
2021/12/03 07:01:24.000  -2173905.7433   4383201.3786   4078069.5598   6   6   0.3642   0.5675   0.7647   0.0000   0.0000   0.0000   0.00    0.0   0.41
2021/12/03 07:01:25.000  -2173900.3073   4383204.2067   4078069.4254   6   6   0.3641   0.5654   0.7610   0.0000   0.0000   0.0000   0.00    0.0   0.40
2021/12/03 07:01:26.000  -2173894.8997   4383207.0715   4078069.3374   6   7   0.3634   0.5630   0.7565   0.0000   0.0000   0.0000   0.00    0.0   0.42
2021/12/03 07:01:27.000  -2173889.4170   4383209.8722   4078069.1825   6   7   0.3531   0.5588   0.7440   0.0000   0.0000   0.0000   0.00    0.0   0.38
2021/12/03 07:01:28.000  -2173884.0577   4383212.6755   4078069.0887   6   7   0.3629   0.5590   0.7494   0.0000   0.0000   0.0000   0.00    0.0   0.40
2021/12/03 07:01:29.000  -2173878.8054   4383215.4341   4078068.9587   6   7   0.3625   0.5569   0.7458   0.0000   0.0000   0.0000   0.00    0.0   0.38
2021/12/03 07:01:30.000  -2173873.6325   4383218.2257   4078068.8572   6   6   0.3627   0.5553   0.7432   0.0000   0.0000   0.0000   0.00    0.0   0.39
2021/12/03 07:01:31.000  -2173868.4526   4383220.9835   4078068.7293   6   7   0.3620   0.5533   0.7394   0.0000   0.0000   0.0000   0.00    0.0   0.51
2021/12/03 07:01:32.000  -2173863.2216   4383223.7908   4078068.5042   6   6   0.3623   0.5517   0.7371   0.0000   0.0000   0.0000   0.00    0.0   0.41
2021/12/03 07:01:33.000  -2173858.0715   4383226.6258   4078068.4116   6   6   0.3622   0.5501   0.7344   0.0000   0.0000   0.0000   0.00    0.0   0.40
2021/12/03 07:01:34.000  -2173852.7912   4383229.4840   4078068.2809   6   6   0.3621   0.5486   0.7318   0.0000   0.0000   0.0000   0.00    0.0   0.41
2021/12/03 07:01:35.000  -2173847.3206   4383232.3912   4078068.0884   6   6   0.3620   0.5470   0.7293   0.0000   0.0000   0.0000   0.00    0.0   0.38
2021/12/03 07:01:36.000  -2173842.3828   4383235.4279   4078070.4507   6   6   0.3619   0.5456   0.7268   0.0000   0.0000   0.0000   0.00    0.0   0.45
2021/12/03 07:01:37.000  -2173836.7271   4383238.5407   4078070.3107   6   6   0.3618   0.5441   0.7244   0.0000   0.0000   0.0000   0.00    0.0   0.44
2021/12/03 07:01:38.000  -2173830.8759   4383241.6597   4078070.0672   6   7   0.3584   0.5426   0.7038   0.0000   0.0000   0.0000   0.00    0.0   0.38
2021/12/03 07:01:39.000  -2173824.8798   4383244.8243   4078069.7222   6   7   0.3467   0.5393   0.6778   0.0000   0.0000   0.0000   0.00    0.0   0.47
2021/12/03 07:01:40.000  -2173818.7860   4383248.0659   4078069.4855   6   7   0.3416   0.5372   0.6606   0.0000   0.0000   0.0000   0.00    0.0   0.42
2021/12/03 07:01:41.000  -2173812.5318   4383251.3514   4078069.2010   6   8   0.3380   0.5353   0.6462   0.0000   0.0000   0.0000   0.00    0.0   0.44
2021/12/03 07:01:42.000  -2173806.2082   4383254.6700   4078068.9104   6   8   0.3343   0.5332   0.6337   0.0000   0.0000   0.0000   0.00    0.0   0.45
2021/12/03 07:01:43.000  -2173799.9103   4383258.0363   4078068.7233   6   6   0.3520   0.5357   0.6531   0.0000   0.0000   0.0000   0.00    0.0   0.42
2021/12/03 07:01:44.000  -2173793.5818   4383261.3419   4078068.4885   6   7   0.3514   0.5342   0.6513   0.0000   0.0000   0.0000   0.00    0.0   0.50
2021/12/03 07:01:45.000  -2173787.3002   4383264.6693   4078068.2591   6   7   0.3404   0.5303   0.6390   0.0000   0.0000   0.0000   0.00    0.0   0.47
2021/12/03 07:01:46.000  -2173781.0655   4383268.0044   4078068.0683   6   7   0.3364   0.5282   0.6338   0.0000   0.0000   0.0000   0.00    0.0   0.42
2021/12/03 07:01:47.000  -2173774.8664   4383271.3085   4078067.8448   6   7   0.3342   0.5264   0.6305   0.0000   0.0000   0.0000   0.00    0.0   0.44
2021/12/03 07:01:48.000  -2173768.6673   4383274.6662   4078067.5515   6   7   0.3327   0.5249   0.6279   0.0000   0.0000   0.0000   0.00    0.0   0.49
2021/12/03 07:01:49.000  -2173762.4444   4383278.0025   4078067.3282   6   8   0.3302   0.5234   0.6172   0.0000   0.0000   0.0000   0.00    0.0   0.45
2021/12/03 07:01:50.000  -2173756.0810   4383281.3695   4078067.0233   6   8   0.3280   0.5220   0.6071   0.0000   0.0000   0.0000   0.00    0.0   0.47
2021/12/03 07:01:51.000  -2173749.6241   4383284.7853   4078066.8334   6   8   0.3271   0.5206   0.6038   0.0000   0.0000   0.0000   0.00    0.0   0.44
2021/12/03 07:01:52.000  -2173743.0485   4383288.2659   4078066.6899   6   8   0.3260   0.5192   0.5991   0.0000   0.0000   0.0000   0.00    0.0   0.45
2021/12/03 07:01:53.000  -2173736.3555   4383291.7771   4078066.5453   6   8   0.3251   0.5179   0.5950   0.0000   0.0000   0.0000   0.00    0.0   0.45
2021/12/03 07:01:54.000  -2173729.5583   4383295.3535   4078066.3371   6   7   0.3247   0.5167   0.5947   0.0000   0.0000   0.0000   0.00    0.0   0.48
2021/12/03 07:01:55.000  -2173722.6162   4383299.0243   4078066.0634   6   7   0.3242   0.5156   0.5934   0.0000   0.0000   0.0000   0.00    0.0   0.48
2021/12/03 07:01:56.000  -2173715.5367   4383302.7945   4078065.7997   6   7   0.3238   0.5144   0.5922   0.0000   0.0000   0.0000   0.00    0.0   0.49
2021/12/03 07:01:57.000  -2173708.3884   4383306.5843   4078065.5861   6   7   0.3233   0.5133   0.5910   0.0000   0.0000   0.0000   0.00    0.0   0.52
2021/12/03 07:01:58.000  -2173701.1777   4383310.4174   4078065.4145   6   7   0.3229   0.5122   0.5898   0.0000   0.0000   0.0000   0.00    0.0   0.48
2021/12/03 07:01:59.000  -2173693.8754   4383314.2499   4078065.1713   6   7   0.3225   0.5112   0.5886   0.0000   0.0000   0.0000   0.00    0.0   0.49
2021/12/03 07:02:00.000  -2173686.5662   4383318.1365   4078064.9640   6   7   0.3221   0.5102   0.5875   0.0000   0.0000   0.0000   0.00    0.0   0.48
2021/12/03 07:02:01.000  -2173679.2528   4383321.9913   4078064.7912   6   7   0.3217   0.5091   0.5863   0.0000   0.0000   0.0000   0.00    0.0   0.45
2021/12/03 07:02:02.000  -2173671.9586   4383325.8132   4078064.6437   6   7   0.3213   0.5081   0.5852   0.0000   0.0000   0.0000   0.00    0.0   0.47
2021/12/03 07:02:03.000  -2173664.7343   4383329.7167   4078064.3823   6   7   0.3209   0.5072   0.5841   0.0000   0.0000   0.0000   0.00    0.0   0.46
2021/12/03 07:02:04.000  -2173657.5796   4383333.7363   4078063.9544   6   7   0.3205   0.5062   0.5830   0.0000   0.0000   0.0000   0.00    0.0   0.45
2021/12/03 07:02:05.000  -2173650.4772   4383337.9047   4078063.3207   6   7   0.3201   0.5053   0.5819   0.0000   0.0000   0.0000   0.00    0.0   0.45
2021/12/03 07:02:06.000  -2173643.4342   4383342.2096   4078062.4224   6   7   0.3198   0.5043   0.5808   0.0000   0.0000   0.0000   0.00    0.0   0.46
2021/12/03 07:02:07.000  -2173636.5039   4383346.6804   4078061.3505   6   7   0.3194   0.5034   0.5797   0.0000   0.0000   0.0000   0.00    0.0   0.44
2021/12/03 07:02:08.000  -2173629.7373   4383351.2160   4078060.0845   6   7   0.3191   0.5025   0.5787   0.0000   0.0000   0.0000   0.00    0.0   0.45
2021/12/03 07:02:09.000  -2173623.0313   4383355.7608   4078058.7943   6   7   0.3187   0.5016   0.5776   0.0000   0.0000   0.0000   0.00    0.0   0.45
2021/12/03 07:02:10.000  -2173616.3435   4383360.2638   4078057.5837   6   7   0.3184   0.5008   0.5765   0.0000   0.0000   0.0000   0.00    0.0   0.43
2021/12/03 07:02:11.000  -2173609.5788   4383364.7578   4078056.3144   6   7   0.3180   0.4999   0.5755   0.0000   0.0000   0.0000   0.00    0.0   0.46
2021/12/03 07:02:12.000  -2173602.6512   4383369.3797   4078055.0742   6   8   0.3174   0.4989   0.5725   0.0000   0.0000   0.0000   0.00    0.0   0.42
2021/12/03 07:02:13.000  -2173595.5461   4383373.9781   4078053.9393   6   8   0.3167   0.4980   0.5688   0.0000   0.0000   0.0000   0.00    0.0   0.48
2021/12/03 07:02:14.000  -2173588.6006   4383378.3117   4078052.9180   6   8   0.3162   0.4971   0.5668   0.0000   0.0000   0.0000   0.00    0.0   0.46
2021/12/03 07:02:15.000  -2173582.3429   4383382.2452   4078052.3255   6   8   0.3377   0.5014   0.5848   0.0000   0.0000   0.0000   0.00    0.0   0.55
2021/12/03 07:02:16.000  -2173576.6549   4383385.4440   4078051.7437   6   8   0.3251   0.5060   0.5660   0.0000   0.0000   0.0000   0.00    0.0   0.49
2021/12/03 07:02:17.000  -2173571.9937   4383388.0473   4078051.4499   6   9   0.3201   0.5039   0.5553   0.0000   0.0000   0.0000   0.00    0.0   0.49
2021/12/03 07:02:18.000  -2173568.2437   4383390.0600   4078051.2909   6   9   0.3169   0.5011   0.5471   0.0000   0.0000   0.0000   0.00    0.0   0.45
2021/12/03 07:02:19.000  -2173565.4370   4383391.5589   4078051.1637   6   9   0.3147   0.4993   0.5403   0.0000   0.0000   0.0000   0.00    0.0   0.48
2021/12/03 07:02:20.000  -2173563.6639   4383392.5021   4078051.0879   6   9   0.3128   0.4979   0.5343   0.0000   0.0000   0.0000   0.00    0.0   0.48
2021/12/03 07:02:21.000  -2173562.5359   4383393.0847   4078051.0417   6   9   0.3112   0.4966   0.5289   0.0000   0.0000   0.0000   0.00    0.0   0.51
2021/12/03 07:02:22.000  -2173561.5729   4383393.6051   4078051.0341   6   9   0.3098   0.4953   0.5239   0.0000   0.0000   0.0000   0.00    0.0   0.55
2021/12/03 07:02:23.000  -2173560.4567   4383394.1415   4078050.9824   1   9   0.2195   0.4644   0.3617   0.0000   0.0000   0.0000   0.00   39.3   0.64
2021/12/03 07:02:24.000  -2173558.9897   4383394.9138   4078050.9093   1   9   0.2192   0.4630   0.3602   0.0000   0.0000   0.0000   0.00   24.6   0.55
2021/12/03 07:02:25.000  -2173556.6597   4383396.1235   4078050.7750   6   8   0.3065   0.4921   0.5120   0.0000   0.0000   0.0000   0.00    0.0   0.47
2021/12/03 07:02:26.000  -2173553.6192   4383397.7190   4078050.6276   6   8   0.3055   0.4911   0.5091   0.0000   0.0000   0.0000   0.00    0.0   0.46
2021/12/03 07:02:27.000  -2173549.7624   4383399.7250   4078050.4476   6   8   0.3047   0.4901   0.5062   0.0000   0.0000   0.0000   0.00    0.0   0.47
2021/12/03 07:02:28.000  -2173545.1059   4383402.1664   4078050.2628   6   8   0.3038   0.4892   0.5035   0.0000   0.0000   0.0000   0.00    0.0   0.45
2021/12/03 07:02:29.000  -2173539.4127   4383405.1717   4078050.0849   1   9   0.2678   0.4107   0.3771   0.0000   0.0000   0.0000   0.00   35.0   0.45
2021/12/03 07:02:30.000  -2173533.5192   4383408.2193   4078049.9265   1   9   0.2674   0.4099   0.3760   0.0000   0.0000   0.0000   0.00   29.8   0.44
2021/12/03 07:02:31.000  -2173528.0616   4383411.0398   4078049.7878   1   9   0.2671   0.4092   0.3749   0.0000   0.0000   0.0000   0.00   30.0   0.47
2021/12/03 07:02:32.000  -2173523.0862   4383413.7896   4078049.4678   1   9   0.2667   0.4084   0.3740   0.0000   0.0000   0.0000   0.00   25.7   0.45
2021/12/03 07:02:33.000  -2173519.8546   4383416.5226   4078048.2850   1   9   0.2664   0.4076   0.3730   0.0000   0.0000   0.0000   0.00   33.3   0.47
2021/12/03 07:02:34.000  -2173518.9847   4383419.0839   4078046.0184   1   9   0.2660   0.4069   0.3721   0.0000   0.0000   0.0000   0.00   28.7   0.52
2021/12/03 07:02:35.000  -2173520.3121   4383420.7603   4078043.5018   1   9   0.2656   0.4061   0.3711   0.0000   0.0000   0.0000   0.00   25.8   0.50
2021/12/03 07:02:36.000  -2173522.9122   4383421.0624   4078041.6831   1   9   0.2653   0.4054   0.3702   0.0000   0.0000   0.0000   0.00   20.3   0.56
2021/12/03 07:02:37.000  -2173526.2082   4383420.1807   4078040.9124   1   9   0.2649   0.4047   0.3693   0.0000   0.0000   0.0000   0.00   17.8   0.53
2021/12/03 07:02:38.000  -2173529.9467   4383418.2227   4078040.9233   6   9   0.2958   0.4796   0.4740   0.0000   0.0000   0.0000   0.00    3.6   0.50
2021/12/03 07:02:39.000  -2173534.2111   4383416.0864   4078040.9257   6   9   0.2951   0.4787   0.4716   0.0000   0.0000   0.0000   0.00    0.0   0.52
2021/12/03 07:02:40.000  -2173539.2407   4383413.5735   4078040.9124   6   9   0.2944   0.4778   0.4694   0.0000   0.0000   0.0000   0.00    0.0   0.52
2021/12/03 07:02:41.000  -2173545.0712   4383410.3712   4078041.2280   6   9   0.2937   0.4769   0.4670   0.0000   0.0000   0.0000   0.00    0.0   0.56
2021/12/03 07:02:42.000  -2173551.3575   4383406.7155   4078041.8171   6   8   0.2931   0.4760   0.4654   0.0000   0.0000   0.0000   0.00    0.0   0.46
2021/12/03 07:02:43.000  -2173557.7162   4383402.9718   4078042.4300   1   8   0.2636   0.4639   0.3868   0.0000   0.0000   0.0000   0.00   13.4   0.49
2021/12/03 07:02:44.000  -2173564.1742   4383399.2302   4078042.9739   6   8   0.2919   0.4746   0.4627   0.0000   0.0000   0.0000   0.00    0.0   0.39
2021/12/03 07:02:45.000  -2173570.7536   4383395.5269   4078043.4751   6   8   0.2914   0.4739   0.4613   0.0000   0.0000   0.0000   0.00    0.0   0.39
2021/12/03 07:02:46.000  -2173577.4715   4383391.8737   4078043.8627   6   8   0.2909   0.4732   0.4599   0.0000   0.0000   0.0000   0.00    0.0   0.38
2021/12/03 07:02:47.000  -2173584.2302   4383388.1391   4078044.3341   6   8   0.2904   0.4726   0.4585   0.0000   0.0000   0.0000   0.00    0.0   0.42
2021/12/03 07:02:48.000  -2173590.9918   4383384.4193   4078043.4738   6   7   0.5015   0.5010   2.3122   0.0000   0.0000   0.0000   0.00    0.0   0.40
2021/12/03 07:02:49.000  -2173598.6076   4383380.8934   4078046.7025   6   7   0.3991   0.4862   1.5429   0.0000   0.0000   0.0000   0.00    0.0   0.50
2021/12/03 07:02:50.000  -2173605.8554   4383376.9960   4078046.1034   6   7   0.3546   0.4804   1.1299   0.0000   0.0000   0.0000   0.00    0.0   0.39
2021/12/03 07:02:51.000  -2173613.3947   4383373.0761   4078045.9958   6   9   0.3355   0.4775   0.9265   0.0000   0.0000   0.0000   0.00    0.0   0.36
2021/12/03 07:02:52.000  -2173620.9586   4383369.0544   4078045.9539   6   8   0.3200   0.4740   0.8311   0.0000   0.0000   0.0000   0.00    0.0   0.43
2021/12/03 07:02:53.000  -2173628.6303   4383365.0399   4078046.0977   6   7   0.3156   0.4729   0.9179   0.0000   0.0000   0.0000   0.00    0.0   0.41
2021/12/03 07:02:54.000  -2173636.5299   4383360.8533   4078046.3278   6   7   0.3135   0.4722   0.8928   0.0000   0.0000   0.0000   0.00    0.0   0.47
2021/12/03 07:02:55.000  -2173644.8096   4383356.5084   4078046.2947   6   7   0.3117   0.4714   0.8715   0.0000   0.0000   0.0000   0.00    0.0   0.42
2021/12/03 07:02:56.000  -2173653.3617   4383352.0313   4078046.6598   6   7   0.3101   0.4707   0.8533   0.0000   0.0000   0.0000   0.00    0.0   0.34
2021/12/03 07:02:57.000  -2173661.9692   4383347.5052   4078046.7500   6   7   0.3088   0.4701   0.8374   0.0000   0.0000   0.0000   0.00    0.0   0.39
2021/12/03 07:02:58.000  -2173670.5204   4383342.9107   4078046.8882   6   7   0.3076   0.4695   0.8234   0.0000   0.0000   0.0000   0.00    0.0   0.37
2021/12/03 07:02:59.000  -2173679.0161   4383338.2763   4078047.2417   6   7   0.3065   0.4688   0.8110   0.0000   0.0000   0.0000   0.00    0.0   0.33
2021/12/03 07:03:00.000  -2173687.6241   4383333.5706   4078047.4032   6   7   0.3055   0.4682   0.7999   0.0000   0.0000   0.0000   0.00    0.0   0.37
2021/12/03 07:03:01.000  -2173696.2460   4383328.8275   4078047.6320   6   7   0.3046   0.4676   0.7900   0.0000   0.0000   0.0000   0.00    0.0   0.38
2021/12/03 07:03:02.000  -2173704.9452   4383324.1034   4078047.6388   6   7   0.3038   0.4671   0.7809   0.0000   0.0000   0.0000   0.00    0.0   0.32
2021/12/03 07:03:03.000  -2173713.6545   4383319.2664   4078047.8855   6   7   0.3031   0.4665   0.7726   0.0000   0.0000   0.0000   0.00    0.0   0.36
2021/12/03 07:03:04.000  -2173722.4039   4383314.3965   4078047.9399   6   7   0.3024   0.4660   0.7651   0.0000   0.0000   0.0000   0.00    0.0   0.38
2021/12/03 07:03:05.000  -2173731.2710   4383309.4547   4078047.9101   6   6   0.3017   0.4655   0.7664   0.0000   0.0000   0.0000   0.00    0.0   0.42
2021/12/03 07:03:06.000  -2173740.2583   4383304.4306   4078047.7990   6   6   0.3012   0.4650   0.7788   0.0000   0.0000   0.0000   0.00    0.0   0.54
2021/12/03 07:03:07.000  -2173749.4064   4383299.3335   4078048.3837   6   8   0.3003   0.4643   0.7395   0.0000   0.0000   0.0000   0.00    0.0   0.43
2021/12/03 07:03:08.000  -2173758.7083   4383294.0912   4078048.2853   6   7   0.2991   0.4632   0.6856   0.0000   0.0000   0.0000   0.00    0.0   0.34
2021/12/03 07:03:09.000  -2173768.1672   4383288.8136   4078048.3445   6   7   0.2984   0.4625   0.6629   0.0000   0.0000   0.0000   0.00    0.0   0.46
2021/12/03 07:03:10.000  -2173777.7914   4383283.4116   4078048.3627   6   7   0.2978   0.4619   0.6488   0.0000   0.0000   0.0000   0.00    0.0   0.36
2021/12/03 07:03:11.000  -2173787.5538   4383277.9116   4078048.4607   6   7   0.2973   0.4613   0.6384   0.0000   0.0000   0.0000   0.00    0.0   0.39
2021/12/03 07:03:12.000  -2173797.4346   4383272.3170   4078048.5097   6   7   0.2968   0.4608   0.6300   0.0000   0.0000   0.0000   0.00    0.0   0.36
2021/12/03 07:03:13.000  -2173807.4711   4383266.6558   4078048.4874   6   7   0.2963   0.4603   0.6229   0.0000   0.0000   0.0000   0.00    0.0   0.37
2021/12/03 07:03:14.000  -2173817.6543   4383260.9464   4078048.5853   6   7   0.2958   0.4598   0.6167   0.0000   0.0000   0.0000   0.00    0.0   0.34
2021/12/03 07:03:15.000  -2173827.9718   4383255.2104   4078048.6516   6   7   0.2954   0.4593   0.6111   0.0000   0.0000   0.0000   0.00    0.0   0.32
2021/12/03 07:03:16.000  -2173838.3981   4383249.3377   4078048.6649   6   7   0.2950   0.4588   0.6060   0.0000   0.0000   0.0000   0.00    0.0   0.31
2021/12/03 07:03:17.000  -2173849.0348   4383243.4790   4078048.8511   6   6   0.3207   0.4639   0.6328   0.0000   0.0000   0.0000   0.00    0.0   0.35
2021/12/03 07:03:18.000  -2173859.6948   4383237.5068   4078048.8488   6   6   0.3205   0.4635   0.6291   0.0000   0.0000   0.0000   0.00    0.0   0.35
2021/12/03 07:03:19.000  -2173870.4191   4383231.5208   4078048.8758   6   6   0.3203   0.4631   0.6256   0.0000   0.0000   0.0000   0.00    0.0   0.42
2021/12/03 07:03:20.000  -2173881.2775   4383225.5621   4078049.0486   6   6   0.3201   0.4627   0.6222   0.0000   0.0000   0.0000   0.00    0.0   0.38
2021/12/03 07:03:21.000  -2173892.0767   4383219.4264   4078049.0222   6   7   0.3195   0.4622   0.6183   0.0000   0.0000   0.0000   0.00    0.0   0.39
2021/12/03 07:03:22.000  -2173903.1149   4383213.3016   4078049.0234   6   7   0.3069   0.4590   0.6036   0.0000   0.0000   0.0000   0.00    0.0   0.42
2021/12/03 07:03:23.000  -2173914.2259   4383207.0940   4078049.1424   6   7   0.3023   0.4577   0.5965   0.0000   0.0000   0.0000   0.00    0.0   0.48
2021/12/03 07:03:24.000  -2173925.3793   4383200.8475   4078049.3125   6   7   0.2999   0.4568   0.5915   0.0000   0.0000   0.0000   0.00    0.0   0.49
2021/12/03 07:05:09.000  -2175139.3804   4382565.4221   4078094.7147   6   6  10.8610   6.4772  14.4379   0.0000   0.0000   0.0000   0.00    0.0   0.15
2021/12/03 07:05:10.000  -2175149.9656   4382558.2712   4078092.6733   6   6   7.8803   4.6904  10.4784   0.0000   0.0000   0.0000   0.00    0.0   0.21
2021/12/03 07:05:11.000  -2175161.6283   4382552.0408   4078092.7056   6   6   6.4933   3.8645   8.6344   0.0000   0.0000   0.0000   0.00    0.0   0.18
2021/12/03 07:05:12.000  -2175173.3689   4382546.1545   4078092.8928   6   6   5.6501   3.3639   7.5129   0.0000   0.0000   0.0000   0.00    0.0   0.20
2021/12/03 07:05:13.000  -2175184.7321   4382540.2043   4078092.8102   6   6   5.0682   3.0193   6.7387   0.0000   0.0000   0.0000   0.00    0.0   0.24
2021/12/03 07:05:14.000  -2175196.3103   4382534.3124   4078093.0698   6   6   4.6353   2.7634   6.1627   0.0000   0.0000   0.0000   0.00    0.0   0.23
2021/12/03 07:05:15.000  -2175208.0102   4382528.4906   4078093.4970   6   6   4.3040   2.5663   5.7207   0.0000   0.0000   0.0000   0.00    0.0   0.18
2021/12/03 07:05:16.000  -2175219.7962   4382522.6941   4078094.0662   6   6   4.0330   2.4061   5.3602   0.0000   0.0000   0.0000   0.00    0.0   0.19
2021/12/03 07:05:17.000  -2175230.7842   4382516.3897   4078093.5268   6   7   2.6844   1.7717   3.4518   0.0000   0.0000   0.0000   0.00    0.0   0.18
2021/12/03 07:05:18.000  -2175242.6766   4382510.5716   4078094.2649   6   6   2.6126   1.7114   3.3703   0.0000   0.0000   0.0000   0.00    0.0   0.19
2021/12/03 07:05:19.000  -2175254.5699   4382504.6820   4078095.0451   6   6   2.5444   1.6571   3.2907   0.0000   0.0000   0.0000   0.00    0.0   0.17
2021/12/03 07:05:20.000  -2175266.4469   4382498.8625   4078095.8900   6   6   2.4819   1.6085   3.2165   0.0000   0.0000   0.0000   0.00    0.0   0.23
2021/12/03 07:05:21.000  -2175278.2923   4382492.9820   4078096.6524   6   6   2.4241   1.5647   3.1472   0.0000   0.0000   0.0000   0.00    0.0   0.24
2021/12/03 07:05:22.000  -2175292.2510   4382488.1187   4078100.0848   6   7   1.6265   1.1834   2.2282   0.0000   0.0000   0.0000   0.00    0.0   0.32
2021/12/03 07:05:23.000  -2175303.4109   4382481.6336   4078100.2875   6   7   1.3168   1.0418   1.8793   0.0000   0.0000   0.0000   0.00    0.0   0.21
2021/12/03 07:05:24.000  -2175314.9520   4382475.2270   4078101.1388   6   8   1.0976   0.9517   1.5897   0.0000   0.0000   0.0000   0.00    0.0   0.20
2021/12/03 07:05:25.000  -2175327.2123   4382468.9662   4078103.0268   6   9   0.8939   0.8889   1.2694   0.0000   0.0000   0.0000   0.00    0.0   0.38
2021/12/03 07:05:26.000  -2175339.0342   4382462.5756   4078103.8468   6   8   0.7900   0.8630   1.1105   0.0000   0.0000   0.0000   0.00    0.0   0.24
2021/12/03 07:05:27.000  -2175350.8825   4382456.2008   4078104.3156   6   7   0.7280   0.8438   1.0269   0.0000   0.0000   0.0000   0.00    0.0   0.22
2021/12/03 07:05:28.000  -2175362.6430   4382450.1625   4078104.7426   6   7   0.7013   0.8505   1.0063   0.0000   0.0000   0.0000   0.00    0.0   0.41
2021/12/03 07:05:29.000  -2175374.3749   4382443.4044   4078105.2783   6   7   0.6750   0.8295   0.9843   0.0000   0.0000   0.0000   0.00    0.0   0.37
2021/12/03 07:05:30.000  -2175385.7782   4382437.1795   4078105.6845   6   6   0.6523   0.8234   0.9647   0.0000   0.0000   0.0000   0.00    0.0   0.20
2021/12/03 07:05:36.000  -2175449.6740   4382405.6019   4078110.7934   6   7   3.4778   3.7465   3.5206   0.0000   0.0000   0.0000   0.00    0.0   0.18
2021/12/03 07:05:37.000  -2175458.2294   4382402.0085   4078111.3981   6   6   2.7426   2.7343   2.9786   0.0000   0.0000   0.0000   0.00    0.0   0.21
2021/12/03 07:05:38.000  -2175465.2115   4382397.5303   4078111.2329   6   6   2.4368   2.2944   2.7557   0.0000   0.0000   0.0000   0.00    0.0   0.22
2021/12/03 07:05:39.000  -2175471.2909   4382394.3218   4078111.4300   6   6   2.2615   2.0367   2.6264   0.0000   0.0000   0.0000   0.00    0.0   0.22
2021/12/03 07:05:40.000  -2175475.9540   4382391.7149   4078111.4222   6   6   2.1442   1.8632   2.5374   0.0000   0.0000   0.0000   0.00    0.0   0.23
2021/12/03 07:05:41.000  -2175479.2819   4382389.8790   4078111.4018   6   6   2.0578   1.7365   2.4696   0.0000   0.0000   0.0000   0.00    0.0   0.21
2021/12/03 07:05:42.000  -2175481.4554   4382388.6292   4078111.3194   6   6   1.9903   1.6389   2.4145   0.0000   0.0000   0.0000   0.00    0.0   0.22
2021/12/03 07:05:43.000  -2175482.9156   4382387.8239   4078111.2715   6   6   1.9349   1.5606   2.3677   0.0000   0.0000   0.0000   0.00    0.0   0.24
2021/12/03 07:05:44.000  -2175483.7052   4382387.2686   4078111.1633   6   6   1.8881   1.4959   2.3267   0.0000   0.0000   0.0000   0.00    0.0   0.22
2021/12/03 07:05:45.000  -2175484.2487   4382386.8126   4078111.0010   6   6   1.8475   1.4413   2.2899   0.0000   0.0000   0.0000   0.00    0.0   0.23
2021/12/03 07:05:46.000  -2175484.2036   4382386.5884   4078110.8408   6   6   1.8115   1.3943   2.2564   0.0000   0.0000   0.0000   0.00    0.0   0.25
2021/12/03 07:05:47.000  -2175484.0728   4382386.4403   4078110.6927   6   6   1.7792   1.3533   2.2254   0.0000   0.0000   0.0000   0.00    0.0   0.24
2021/12/03 07:05:48.000  -2175483.9323   4382386.3017   4078110.5346   6   6   1.7497   1.3170   2.1964   0.0000   0.0000   0.0000   0.00    0.0   0.23
2021/12/03 07:05:49.000  -2175483.8215   4382386.2151   4078110.4214   6   6   1.7225   1.2845   2.1691   0.0000   0.0000   0.0000   0.00    0.0   0.22
2021/12/03 07:05:50.000  -2175483.7017   4382386.1081   4078110.2959   6   6   1.6972   1.2552   2.1432   0.0000   0.0000   0.0000   0.00    0.0   0.23
2021/12/03 07:05:51.000  -2175483.5990   4382385.9568   4078110.1930   6   6   1.6736   1.2286   2.1185   0.0000   0.0000   0.0000   0.00    0.0   0.27
2021/12/03 07:05:52.000  -2175483.4560   4382385.8042   4078110.0355   6   6   1.6513   1.2041   2.0949   0.0000   0.0000   0.0000   0.00    0.0   0.26
2021/12/03 07:05:53.000  -2175483.3334   4382385.6674   4078109.8973   6   6   1.6302   1.1816   2.0721   0.0000   0.0000   0.0000   0.00    0.0   0.27
2021/12/03 07:05:54.000  -2175483.2144   4382385.5341   4078109.7755   6   6   1.6101   1.1608   2.0501   0.0000   0.0000   0.0000   0.00    0.0   0.28
2021/12/03 07:05:55.000  -2175483.0819   4382385.3822   4078109.6236   6   6   1.5908   1.1413   2.0289   0.0000   0.0000   0.0000   0.00    0.0   0.30
2021/12/03 07:05:56.000  -2175482.9896   4382385.2747   4078109.5265   6   6   1.5724   1.1232   2.0082   0.0000   0.0000   0.0000   0.00    0.0   0.29
2021/12/03 07:05:57.000  -2175482.9250   4382385.1445   4078109.4028   6   6   1.5546   1.1061   1.9882   0.0000   0.0000   0.0000   0.00    0.0   0.29
2021/12/03 07:05:58.000  -2175483.1115   4382384.8470   4078109.2187   6   6   1.5375   1.0900   1.9686   0.0000   0.0000   0.0000   0.00    0.0   0.28
2021/12/03 07:05:59.000  -2175483.7470   4382384.4905   4078109.2230   6   6   1.5209   1.0748   1.9495   0.0000   0.0000   0.0000   0.00    0.0   0.28
2021/12/03 07:06:00.000  -2175484.1036   4382384.2614   4078109.1882   6   6   1.5048   1.0603   1.9309   0.0000   0.0000   0.0000   0.00    0.0   0.28
2021/12/03 07:06:01.000  -2175484.0357   4382384.2043   4078109.0961   6   6   1.4892   1.0466   1.9126   0.0000   0.0000   0.0000   0.00    0.0   0.27
2021/12/03 07:06:02.000  -2175483.9968   4382384.1588   4078109.0378   6   6   1.4740   1.0335   1.8947   0.0000   0.0000   0.0000   0.00    0.0   0.28
2021/12/03 07:06:03.000  -2175483.9745   4382384.1248   4078109.0076   6   6   1.4591   1.0210   1.8771   0.0000   0.0000   0.0000   0.00    0.0   0.27
2021/12/03 07:06:04.000  -2175483.9449   4382384.0927   4078108.9647   6   6   1.4446   1.0090   1.8599   0.0000   0.0000   0.0000   0.00    0.0   0.28
2021/12/03 07:06:05.000  -2175483.9582   4382384.0791   4078108.9803   6   6   1.4305   0.9974   1.8429   0.0000   0.0000   0.0000   0.00    0.0   0.29
2021/12/03 07:06:06.000  -2175483.8726   4382384.0061   4078108.8658   6   6   1.4166   0.9864   1.8262   0.0000   0.0000   0.0000   0.00    0.0   0.30
2021/12/03 07:06:07.000  -2175483.8643   4382383.9713   4078108.8464   6   6   1.4030   0.9757   1.8098   0.0000   0.0000   0.0000   0.00    0.0   0.28
2021/12/03 07:06:08.000  -2175483.8686   4382383.9505   4078108.8415   6   6   1.3896   0.9654   1.7936   0.0000   0.0000   0.0000   0.00    0.0   0.31
2021/12/03 07:06:09.000  -2175483.8937   4382383.9486   4078108.8577   6   6   1.3765   0.9555   1.7777   0.0000   0.0000   0.0000   0.00    0.0   0.32
2021/12/03 07:06:10.000  -2175483.8696   4382383.9296   4078108.8093   6   6   1.3636   0.9459   1.7619   0.0000   0.0000   0.0000   0.00    0.0   0.30
2021/12/03 07:06:11.000  -2175483.8291   4382383.9056   4078108.7379   6   6   1.3510   0.9366   1.7464   0.0000   0.0000   0.0000   0.00    0.0   0.29
2021/12/03 07:06:12.000  -2175483.8747   4382383.9183   4078108.7681   6   6   1.3385   0.9275   1.7311   0.0000   0.0000   0.0000   0.00    0.0   0.30
2021/12/03 07:06:13.000  -2175483.8563   4382383.8954   4078108.7298   6   6   1.3262   0.9188   1.7159   0.0000   0.0000   0.0000   0.00    0.0   0.29
2021/12/03 07:06:14.000  -2175483.8463   4382383.8757   4078108.6991   6   6   1.3141   0.9103   1.7009   0.0000   0.0000   0.0000   0.00    0.0   0.30
2021/12/03 07:06:15.000  -2175483.8432   4382383.8720   4078108.6722   6   6   1.3022   0.9020   1.6861   0.0000   0.0000   0.0000   0.00    0.0   0.30
2021/12/03 07:06:16.000  -2175483.8501   4382383.8647   4078108.6562   6   6   1.2904   0.8939   1.6715   0.0000   0.0000   0.0000   0.00    0.0   0.31
2021/12/03 07:06:17.000  -2175485.4542   4382384.6508   4078110.7558   6   6   1.2788   0.8861   1.6571   0.0000   0.0000   0.0000   0.00    0.0   0.31
2021/12/03 07:06:18.000  -2175484.6842   4382384.2526   4078109.7115   6   7   1.0911   0.8158   1.3978   0.0000   0.0000   0.0000   0.00    0.0   0.38
2021/12/03 07:06:19.000  -2175484.1692   4382383.9805   4078109.0065   6   7   0.9776   0.7744   1.2402   0.0000   0.0000   0.0000   0.00    0.0   0.37
2021/12/03 07:06:20.000  -2175483.5312   4382383.6464   4078108.1466   6   7   0.9064   0.7482   1.1413   0.0000   0.0000   0.0000   0.00    0.0   0.48
2021/12/03 07:06:21.000  -2175483.6323   4382383.6911   4078108.2755   6   7   0.8511   0.7278   1.0644   0.0000   0.0000   0.0000   0.00    0.0   0.29
2021/12/03 07:06:22.000  -2175482.8438   4382383.2759   4078107.1968   6   6   0.8496   0.7239   1.0642   0.0000   0.0000   0.0000   0.00    0.0   0.30
2021/12/03 07:06:23.000  -2175482.9793   4382383.3407   4078107.3679   6   7   0.8042   0.7071   1.0010   0.0000   0.0000   0.0000   0.00    0.0   0.31
2021/12/03 07:06:24.000  -2175484.0527   4382383.8569   4078108.7685   6   7   0.7653   0.6949   0.9470   0.0000   0.0000   0.0000   0.00    0.0   0.47
2021/12/03 07:06:25.000  -2175483.3983   4382383.5096   4078107.8636   6   7   0.7420   0.6861   0.9151   0.0000   0.0000   0.0000   0.00    0.0   0.48
2021/12/03 07:06:26.000  -2175483.1398   4382383.3780   4078107.5096   6   7   0.7126   0.6748   0.8744   0.0000   0.0000   0.0000   0.00    0.0   0.47
2021/12/03 07:06:27.000  -2175482.9196   4382383.2607   4078107.2072   6   7   0.6898   0.6656   0.8432   0.0000   0.0000   0.0000   0.00    0.0   0.44
2021/12/03 07:06:28.000  -2175482.1797   4382382.8843   4078106.1824   6   7   0.6792   0.6618   0.8295   0.0000   0.0000   0.0000   0.00    0.0   0.49
2021/12/03 07:06:29.000  -2175482.0866   4382382.8422   4078106.0461   6   7   0.6631   0.6545   0.8078   0.0000   0.0000   0.0000   0.00    0.0   0.32
2021/12/03 07:06:30.000  -2175482.2281   4382382.9176   4078106.2229   6   7   0.6486   0.6477   0.7885   0.0000   0.0000   0.0000   0.00    0.0   0.39
2021/12/03 07:06:31.000  -2175482.2399   4382382.9282   4078106.2267   6   7   0.6356   0.6415   0.7711   0.0000   0.0000   0.0000   0.00    0.0   0.29
2021/12/03 07:06:32.000  -2175482.1710   4382382.8940   4078106.1141   6   7   0.6237   0.6356   0.7554   0.0000   0.0000   0.0000   0.00    0.0   0.35
2021/12/03 07:06:33.000  -2175482.0967   4382382.8586   4078106.0063   6   7   0.6128   0.6301   0.7412   0.0000   0.0000   0.0000   0.00    0.0   0.31
2021/12/03 07:06:34.000  -2175482.1311   4382382.8773   4078106.0392   6   7   0.6027   0.6249   0.7281   0.0000   0.0000   0.0000   0.00    0.0   0.29
2021/12/03 07:06:35.000  -2175482.2538   4382382.9390   4078106.1815   6   7   0.5934   0.6200   0.7161   0.0000   0.0000   0.0000   0.00    0.0   0.39
2021/12/03 07:06:36.000  -2175482.2807   4382382.9716   4078106.2030   6   6   0.5923   0.6171   0.7161   0.0000   0.0000   0.0000   0.00    0.0   0.33
2021/12/03 07:06:37.000  -2175482.3995   4382383.0269   4078106.3450   6   7   0.5823   0.6122   0.7031   0.0000   0.0000   0.0000   0.00    0.0   0.42
2021/12/03 07:06:38.000  -2175482.7846   4382383.2157   4078106.8328   6   6   0.5812   0.6095   0.7031   0.0000   0.0000   0.0000   0.00    0.0   0.34
2021/12/03 07:06:39.000  -2175482.7863   4382383.2369   4078106.8276   6   6   0.5788   0.6065   0.7012   0.0000   0.0000   0.0000   0.00    0.0   0.34
2021/12/03 07:06:40.000  -2175483.2930   4382383.4822   4078107.4682   6   6   0.5765   0.6037   0.6994   0.0000   0.0000   0.0000   0.00    0.0   0.35
2021/12/03 07:06:41.000  -2175483.7006   4382383.6994   4078107.9917   6   6   0.5742   0.6009   0.6976   0.0000   0.0000   0.0000   0.00    0.0   0.35
2021/12/03 07:06:42.000  -2175484.2746   4382383.9682   4078108.7141   6   7   0.5654   0.5983   0.6860   0.0000   0.0000   0.0000   0.00    0.0   0.53
2021/12/03 07:06:43.000  -2175484.4333   4382384.0638   4078108.9076   6   6   0.5645   0.5959   0.6862   0.0000   0.0000   0.0000   0.00    0.0   0.36
2021/12/03 07:06:44.000  -2175484.5725   4382384.1348   4078109.0835   6   7   0.5559   0.5917   0.6750   0.0000   0.0000   0.0000   0.00    0.0   0.46
2021/12/03 07:06:45.000  -2175484.6237   4382384.1600   4078109.1434   6   7   0.5491   0.5880   0.6664   0.0000   0.0000   0.0000   0.00    0.0   0.41
2021/12/03 07:06:46.000  -2175484.6466   4382384.1740   4078109.1650   6   7   0.5426   0.5845   0.6583   0.0000   0.0000   0.0000   0.00    0.0   0.34
2021/12/03 07:06:47.000  -2175484.7063   4382384.2078   4078109.2421   6   7   0.5365   0.5810   0.6507   0.0000   0.0000   0.0000   0.00    0.0   0.37
2021/12/03 07:06:48.000  -2175485.1496   4382384.4147   4078109.8179   6   7   0.5310   0.5794   0.6439   0.0000   0.0000   0.0000   0.00    0.0   0.56
2021/12/03 07:06:49.000  -2175485.1321   4382384.4102   4078109.7868   6   7   0.5255   0.5762   0.6371   0.0000   0.0000   0.0000   0.00    0.0   0.33
2021/12/03 07:06:50.000  -2175485.0317   4382384.3647   4078109.6510   6   7   0.5203   0.5731   0.6307   0.0000   0.0000   0.0000   0.00    0.0   0.49
2021/12/03 07:06:51.000  -2175485.0681   4382384.4021   4078109.6937   6   6   0.5195   0.5710   0.6308   0.0000   0.0000   0.0000   0.00    0.0   0.35
2021/12/03 07:06:52.000  -2175485.0838   4382384.4211   4078109.7097   6   6   0.5177   0.5688   0.6293   0.0000   0.0000   0.0000   0.00    0.0   0.36
2021/12/03 07:06:53.000  -2175485.0631   4382384.4294   4078109.6852   6   6   0.5159   0.5666   0.6279   0.0000   0.0000   0.0000   0.00    0.0   0.36
2021/12/03 07:06:54.000  -2175485.0746   4382384.4558   4078109.6935   6   6   0.5141   0.5645   0.6265   0.0000   0.0000   0.0000   0.00    0.0   0.37
2021/12/03 07:06:55.000  -2175484.8902   4382384.3829   4078109.4411   6   6   0.5124   0.5624   0.6251   0.0000   0.0000   0.0000   0.00    0.0   0.37
2021/12/03 07:06:56.000  -2175484.7921   4382384.3569   4078109.3168   6   7   0.5065   0.5594   0.6176   0.0000   0.0000   0.0000   0.00    0.0   0.47
2021/12/03 07:06:57.000  -2175484.4014   4382384.1655   4078108.7909   6   7   0.4944   0.5565   0.6014   0.0000   0.0000   0.0000   0.00    0.0   0.54
2021/12/03 07:06:58.000  -2175484.4490   4382384.2029   4078108.8604   6   7   0.4873   0.5533   0.5922   0.0000   0.0000   0.0000   0.00    0.0   0.42
2021/12/03 07:06:59.000  -2175484.2751   4382384.1542   4078108.6434   6   6   0.4971   0.5538   0.6072   0.0000   0.0000   0.0000   0.00    0.0   0.36
2021/12/03 07:07:00.000  -2175484.1009   4382384.0912   4078108.4013   6   6   0.4955   0.5519   0.6059   0.0000   0.0000   0.0000   0.00    0.0   0.36
2021/12/03 07:07:01.000  -2175484.0330   4382384.0730   4078108.3221   6   7   0.4903   0.5492   0.5994   0.0000   0.0000   0.0000   0.00    0.0   0.42
2021/12/03 07:07:02.000  -2175483.8886   4382384.0233   4078108.1330   6   6   0.4898   0.5476   0.5996   0.0000   0.0000   0.0000   0.00    0.0   0.36
2021/12/03 07:07:03.000  -2175483.8576   4382384.0187   4078108.0933   6   7   0.4768   0.5434   0.5821   0.0000   0.0000   0.0000   0.00    0.0   0.34
2021/12/03 07:07:04.000  -2175483.8563   4382384.0496   4078108.1078   6   6   0.4843   0.5435   0.5936   0.0000   0.0000   0.0000   0.00    0.0   0.37
2021/12/03 07:07:05.000  -2175483.8708   4382384.0717   4078108.1270   6   6   0.4828   0.5418   0.5924   0.0000   0.0000   0.0000   0.00    0.0   0.37
2021/12/03 07:07:06.000  -2175483.8578   4382384.0831   4078108.1182   6   6   0.4813   0.5401   0.5913   0.0000   0.0000   0.0000   0.00    0.0   0.37
2021/12/03 07:07:07.000  -2175483.8535   4382384.1034   4078108.1213   6   6   0.4799   0.5384   0.5901   0.0000   0.0000   0.0000   0.00    0.0   0.38
